[{"icao":"OABT","name":"Bost Airport","city":"Lashkar Gah","country":"AF","lat":31.5597,"lon":64.365,"max_runway_m":2301,"scheduled":false},{"icao":"OAEM","name":"Ishkashim Airport","city":"Ishkashim","country":"AF","lat":36.7127,"lon":71.6126,"max_runway_m":896,"scheduled":false},{"icao":"OAHR","name":"Herat - Khwaja Abdullah Ansari International Airport","city":"Guzara","country":"AF","lat":34.21,"lon":62.2283,"max_runway_m":3014,"scheduled":true},{"icao":"OAIX","name":"Bagram Airfield","city":"Bagram","country":"AF","lat":34.9461,"lon":69.265,"max_runway_m":3603,"scheduled":false},{"icao":"OAJL","name":"Jalalabad Airport","city":"Jalalabad","country":"AF","lat":34.3998,"lon":70.4986,"max_runway_m":2213,"scheduled":false},{"icao":"OAKB","name":"Kabul International Airport","city":"Kabul","country":"AF","lat":34.5659,"lon":69.2123,"max_runway_m":3500,"scheduled":true},{"icao":"OAKN","name":"Ahmad Shah Baba International Airport","city":"Kandahar","country":"AF","lat":31.5058,"lon":65.848,"max_runway_m":3210,"scheduled":true},{"icao":"OAKS","name":"Khost International Airport","city":"Khost","country":"AF","lat":33.2846,"lon":69.8073,"max_runway_m":2664,"scheduled":true},{"icao":"OAMS","name":"Mazar-i-Sharif International Airport","city":"Mazar-i-Sharif","country":"AF","lat":36.7041,"lon":67.2105,"max_runway_m":3000,"scheduled":true},{"icao":"OASD","name":"Shindand Air Base","city":"Shindand","country":"AF","lat":33.3913,"lon":62.261,"max_runway_m":2786,"scheduled":false},{"icao":"OASG","name":"Sheberghan Airport","city":"Sheberghan","country":"AF","lat":36.7511,"lon":65.913,"max_runway_m":1397,"scheduled":false},{"icao":"OATN","name":"Tarinkot Airport","city":"Tarinkot","country":"AF","lat":32.6042,"lon":65.8658,"max_runway_m":2225,"scheduled":false},{"icao":"OAUZ","name":"Kunduz Airport","city":"Kunduz","country":"AF","lat":36.6651,"lon":68.9108,"max_runway_m":1999,"scheduled":false},{"icao":"OBBI","name":"Bahrain International Airport","city":"Manama","country":"BH","lat":26.2673,"lon":50.6376,"max_runway_m":3956,"scheduled":true},{"icao":"OBBS","name":"Sheik Isa Air Base","city":"Sitrah","country":"BH","lat":25.9184,"lon":50.5906,"max_runway_m":3800,"scheduled":false},{"icao":"OBKH","name":"Sakhir Air Base","city":"Zallaq","country":"BH","lat":26.0345,"lon":50.5245,"max_runway_m":3200,"scheduled":false},{"icao":"OEAA","name":"Abu Ali Airport","city":"Jubail","country":"SA","lat":27.3187,"lon":49.5867,"max_runway_m":1511,"scheduled":false},{"icao":"OEAB","name":"Abha International Airport","city":"Abha","country":"SA","lat":18.2404,"lon":42.6566,"max_runway_m":3350,"scheduled":true},{"icao":"OEAH","name":"Al-Ahsa International Airport","city":"Hofuf","country":"SA","lat":25.2853,"lon":49.4852,"max_runway_m":3060,"scheduled":true},{"icao":"OEAO","name":"Al-Ula International Airport","city":"Al-Ula","country":"SA","lat":26.4836,"lon":38.117,"max_runway_m":3050,"scheduled":true},{"icao":"OEBA","name":"King Saud Bin Abdulaziz (Al Baha) Airport","city":"Al-Baha","country":"SA","lat":20.2985,"lon":41.6362,"max_runway_m":3350,"scheduled":true},{"icao":"OEBH","name":"Bisha Airport","city":"Bisha","country":"SA","lat":19.9844,"lon":42.6209,"max_runway_m":3050,"scheduled":true},{"icao":"OEBQ","name":"Abqaiq Airport","city":"Buqayq","country":"SA","lat":25.9113,"lon":49.5912,"max_runway_m":1852,"scheduled":false},{"icao":"OEDF","name":"King Fahd International Airport","city":"Ad Dammam","country":"SA","lat":26.4691,"lon":49.7982,"max_runway_m":4000,"scheduled":true},{"icao":"OEDM","name":"Dawadmi Domestic Airport","city":"Dawadmi","country":"SA","lat":24.4499,"lon":44.1212,"max_runway_m":3050,"scheduled":true},{"icao":"OEDR","name":"King Abdulaziz Air Base","city":"Dhahran","country":"SA","lat":26.2654,"lon":50.152,"max_runway_m":3660,"scheduled":false},{"icao":"OEGN","name":"Jizan Regional Airport / King Abdullah bin Abdulaziz Airport","city":"Jizan","country":"SA","lat":16.9011,"lon":42.5858,"max_runway_m":3050,"scheduled":true},{"icao":"OEGS","name":"Prince Naif bin Abdulaziz International Airport","city":"Qassim","country":"SA","lat":26.3028,"lon":43.7744,"max_runway_m":3000,"scheduled":true},{"icao":"OEGT","name":"Gurayat Domestic Airport","city":"Gurayat","country":"SA","lat":31.4124,"lon":37.2789,"max_runway_m":3050,"scheduled":true},{"icao":"OEHL","name":"Hail International Airport","city":"Hail","country":"SA","lat":27.4379,"lon":41.6863,"max_runway_m":3720,"scheduled":true},{"icao":"OEHW","name":"Hawtah Airport","city":"Hawtah","country":"SA","lat":22.9678,"lon":46.8995,"max_runway_m":2590,"scheduled":false},{"icao":"OEJB","name":"Jubail Airport","city":"Jubail","country":"SA","lat":27.039,"lon":49.4051,"max_runway_m":4000,"scheduled":false},{"icao":"OEJF","name":"King Faisal Naval Base","city":"Jeddah","country":"SA","lat":21.3481,"lon":39.173,"max_runway_m":2732,"scheduled":false},{"icao":"OEJN","name":"King Abdulaziz International Airport","city":"Jeddah","country":"SA","lat":21.6802,"lon":39.1574,"max_runway_m":4000,"scheduled":true},{"icao":"OEKF","name":"King Faisal Air Academy Airport","city":"","country":"SA","lat":26.0853,"lon":45.1967,"max_runway_m":3700,"scheduled":false},{"icao":"OEKK","name":"King Khaled Military City Airport","city":"King Khaled Military City","country":"SA","lat":27.9009,"lon":45.5282,"max_runway_m":3659,"scheduled":true},{"icao":"OEKM","name":"King Khalid Air Base","city":"Khamis Mushait","country":"SA","lat":18.2973,"lon":42.8035,"max_runway_m":3800,"scheduled":false},{"icao":"OEKR","name":"Old Khurais Airport","city":"Khurais oil field","country":"SA","lat":25.0696,"lon":48.1949,"max_runway_m":1905,"scheduled":false},{"icao":"OEMA","name":"Prince Mohammad Bin Abdulaziz Airport","city":"Medina","country":"SA","lat":24.5534,"lon":39.7051,"max_runway_m":4335,"scheduled":true},{"icao":"OENG","name":"Najran Domestic Airport","city":"Najran","country":"SA","lat":17.6114,"lon":44.4192,"max_runway_m":3050,"scheduled":true},{"icao":"OENN","name":"Neom Bay Airport","city":"Sharma","country":"SA","lat":27.9243,"lon":35.2936,"max_runway_m":3757,"scheduled":true},{"icao":"OEPA","name":"Qaisumah–Hafar Al-Batin International Airport","city":"Qaisumah","country":"SA","lat":28.3357,"lon":46.1271,"max_runway_m":3050,"scheduled":true},{"icao":"OEPC","name":"Pump Station 3 Airport","city":"Wasea","country":"SA","lat":25.1745,"lon":47.4884,"max_runway_m":2440,"scheduled":false},{"icao":"OEPF","name":"Pump Station 6 Airport","city":"","country":"SA","lat":24.7103,"lon":44.9645,"max_runway_m":2440,"scheduled":false},{"icao":"OEPI","name":"Pump Station 9 Airport","city":"","country":"SA","lat":24.2761,"lon":42.1437,"max_runway_m":2441,"scheduled":false},{"icao":"OEPJ","name":"Pump Station 10 Airport","city":"","country":"SA","lat":24.1073,"lon":41.036,"max_runway_m":1950,"scheduled":false},{"icao":"OEPK","name":"IPSA 3 Airport","city":"Hafar al Batin","country":"SA","lat":27.9542,"lon":46.7426,"max_runway_m":1831,"scheduled":false},{"icao":"OEPS","name":"Prince Sultan Air Base","city":"Al Kharj","country":"SA","lat":24.0627,"lon":47.5805,"max_runway_m":4000,"scheduled":false},{"icao":"OERB","name":"Rabigh Airport","city":"Rabigh","country":"SA","lat":22.7026,"lon":39.0698,"max_runway_m":2359,"scheduled":false},{"icao":"OERF","name":"Rafha Domestic Airport","city":"Rafha","country":"SA","lat":29.6264,"lon":43.4906,"max_runway_m":2997,"scheduled":true},{"icao":"OERK","name":"King Khalid International Airport","city":"Riyadh","country":"SA","lat":24.9576,"lon":46.6988,"max_runway_m":4205,"scheduled":true},{"icao":"OERM","name":"Ras Mishab Airport","city":"Al Mishab","country":"SA","lat":28.0796,"lon":48.611,"max_runway_m":3370,"scheduled":false},{"icao":"OERR","name":"Arar Domestic Airport","city":"Arar","country":"SA","lat":30.9066,"lon":41.1382,"max_runway_m":3050,"scheduled":true},{"icao":"OERT","name":"Ras Tanura Airport","city":"Ras Tanura","country":"SA","lat":26.7231,"lon":50.0308,"max_runway_m":2153,"scheduled":false},{"icao":"OESB","name":"Shaibah Airport","city":"Shaybah","country":"SA","lat":22.5148,"lon":53.9641,"max_runway_m":3050,"scheduled":false},{"icao":"OESH","name":"Sharurah Domestic Airport","city":"Sharurah","country":"SA","lat":17.4669,"lon":47.1214,"max_runway_m":3650,"scheduled":true},{"icao":"OESK","name":"Al-Jawf International Airport","city":"Al-Jawf","country":"SA","lat":29.7833,"lon":40.1009,"max_runway_m":3661,"scheduled":true},{"icao":"OESL","name":"As-Sulayyil Airport","city":"As-Sulayyil","country":"SA","lat":20.4647,"lon":45.6196,"max_runway_m":3005,"scheduled":false},{"icao":"OETB","name":"Prince Sultan bin Abdulaziz International Airport","city":"Tabuk","country":"SA","lat":28.3711,"lon":36.6249,"max_runway_m":3350,"scheduled":true},{"icao":"OETF","name":"Taif International Airport","city":"Taif","country":"SA","lat":21.4847,"lon":40.5441,"max_runway_m":3735,"scheduled":true},{"icao":"OETH","name":"Thumamah Airport","city":"","country":"SA","lat":25.213,"lon":46.6408,"max_runway_m":4014,"scheduled":false},{"icao":"OETN","name":"Ras Tanajib Airport","city":"As Saffaniyah","country":"SA","lat":27.8678,"lon":48.7691,"max_runway_m":2440,"scheduled":false},{"icao":"OETR","name":"Turaif Domestic Airport","city":"Turaif","country":"SA","lat":31.6922,"lon":38.7315,"max_runway_m":3000,"scheduled":true},{"icao":"OEUD","name":"Udhailiyah Airport","city":"Udhailiyah","country":"SA","lat":25.1511,"lon":49.3288,"max_runway_m":2186,"scheduled":false},{"icao":"OEWD","name":"Wadi Al Dawasir Domestic Airport","city":"Wadi Al Dawasir","country":"SA","lat":20.5043,"lon":45.1996,"max_runway_m":3050,"scheduled":true},{"icao":"OEWJ","name":"Al Wajh Domestic Airport","city":"Al Wajh","country":"SA","lat":26.1986,"lon":36.4764,"max_runway_m":3050,"scheduled":true},{"icao":"OEYN","name":"Prince Abdulmohsen Bin Abdulaziz International Airport","city":"Yanbu","country":"SA","lat":24.1442,"lon":38.0634,"max_runway_m":3210,"scheduled":true},{"icao":"OIAA","name":"Abadan Ayatollah Jami International Airport","city":"Abadan","country":"IR","lat":30.3679,"lon":48.2301,"max_runway_m":3100,"scheduled":true},{"icao":"OIAD","name":"Dezful Airport","city":"Dezful","country":"IR","lat":32.4344,"lon":48.3976,"max_runway_m":3853,"scheduled":true},{"icao":"OIAG","name":"Aghajari Airport","city":"Omidiyeh","country":"IR","lat":30.7444,"lon":49.6772,"max_runway_m":2113,"scheduled":false},{"icao":"OIAH","name":"Gachsaran Airport","city":"Gachsaran","country":"IR","lat":30.3339,"lon":50.8338,"max_runway_m":1850,"scheduled":true},{"icao":"OIAI","name":"Shahid Asiyaee Airport","city":"Masjed Soleyman","country":"IR","lat":32.0017,"lon":49.2686,"max_runway_m":1800,"scheduled":false},{"icao":"OIAJ","name":"Omidiyeh Airport","city":"Omidiyeh","country":"IR","lat":30.8352,"lon":49.5349,"max_runway_m":4115,"scheduled":false},{"icao":"OIAM","name":"Mahshahr Airport","city":"Mahshahr","country":"IR","lat":30.5562,"lon":49.1519,"max_runway_m":2705,"scheduled":true},{"icao":"OIAW","name":"Qasem Soleimani International Airport","city":"Ahvaz","country":"IR","lat":31.3364,"lon":48.7638,"max_runway_m":3398,"scheduled":true},{"icao":"OIBA","name":"Abu Musa Island Airport","city":"Abu Musa","country":"IR","lat":25.8757,"lon":55.033,"max_runway_m":2986,"scheduled":true},{"icao":"OIBB","name":"Bushehr Airport","city":"Bushehr","country":"IR","lat":28.9448,"lon":50.8346,"max_runway_m":4470,"scheduled":true},{"icao":"OIBH","name":"Bastak Airport","city":"","country":"IR","lat":27.2127,"lon":54.3186,"max_runway_m":1372,"scheduled":false},{"icao":"OIBJ","name":"Jam Airport","city":"Jam","country":"IR","lat":27.8205,"lon":52.3522,"max_runway_m":2350,"scheduled":false},{"icao":"OIBK","name":"Kish International Airport","city":"Kish Island","country":"IR","lat":26.5254,"lon":53.9805,"max_runway_m":3659,"scheduled":true},{"icao":"OIBL","name":"Bandar Lengeh International Airport","city":"Bandar Lengeh","country":"IR","lat":26.5323,"lon":54.8248,"max_runway_m":2500,"scheduled":true},{"icao":"OIBP","name":"Persian Gulf International Airport","city":"Khiyaroo","country":"IR","lat":27.3796,"lon":52.7377,"max_runway_m":3997,"scheduled":true},{"icao":"OIBQ","name":"Khark Airport","city":"Khark","country":"IR","lat":29.2605,"lon":50.3222,"max_runway_m":1805,"scheduled":true},{"icao":"OIBS","name":"Siri Airport","city":"Siri","country":"IR","lat":25.9089,"lon":54.5394,"max_runway_m":2544,"scheduled":false},{"icao":"OIBV","name":"Lavan Airport","city":"Lavan Airport","country":"IR","lat":26.8107,"lon":53.3543,"max_runway_m":2077,"scheduled":false},{"icao":"OICC","name":"Shahid Ashrafi Esfahani Airport","city":"Kermanshah","country":"IR","lat":34.3459,"lon":47.1581,"max_runway_m":3418,"scheduled":true},{"icao":"OICI","name":"Ilam Airport","city":"Ilam","country":"IR","lat":33.5866,"lon":46.4048,"max_runway_m":2799,"scheduled":false},{"icao":"OICK","name":"Khoram Abad Airport","city":"","country":"IR","lat":33.4354,"lon":48.2829,"max_runway_m":3200,"scheduled":true},{"icao":"OICS","name":"Sanandaj Airport","city":"","country":"IR","lat":35.2459,"lon":47.0092,"max_runway_m":2640,"scheduled":true},{"icao":"OIFE","name":"Hesa Airport","city":"Hesa","country":"IR","lat":32.9289,"lon":51.5611,"max_runway_m":2996,"scheduled":false},{"icao":"OIFK","name":"Kashan Airport","city":"Kashan","country":"IR","lat":33.8953,"lon":51.577,"max_runway_m":2696,"scheduled":true},{"icao":"OIFM","name":"Isfahan Shahid Beheshti International Airport","city":"Isfahan","country":"IR","lat":32.7551,"lon":51.8839,"max_runway_m":4397,"scheduled":true},{"icao":"OIFP","name":"Badr Air Base","city":"Esfahan","country":"IR","lat":32.6211,"lon":51.697,"max_runway_m":3328,"scheduled":false},{"icao":"OIFS","name":"Shahrekord Airport","city":"Shahrekord","country":"IR","lat":32.2972,"lon":50.8422,"max_runway_m":3298,"scheduled":false},{"icao":"OIGG","name":"Sardar-e-Jangal Airport","city":"Rasht","country":"IR","lat":37.3233,"lon":49.6178,"max_runway_m":2917,"scheduled":true},{"icao":"OIHH","name":"Hamadan Airport","city":"Hamadan","country":"IR","lat":34.8664,"lon":48.5607,"max_runway_m":3234,"scheduled":true},{"icao":"OIHR","name":"Arak Airport","city":"Araak","country":"IR","lat":34.1381,"lon":49.8473,"max_runway_m":2990,"scheduled":false},{"icao":"OIHS","name":"Nojeh Air Base","city":"Amirabad","country":"IR","lat":35.2116,"lon":48.6534,"max_runway_m":4359,"scheduled":false},{"icao":"OIIA","name":"Qazvin Azadi Airport","city":"Gharpuz Abad","country":"IR","lat":35.9521,"lon":50.4508,"max_runway_m":1396,"scheduled":false},{"icao":"OIIC","name":"Manzariyeh Air Base","city":"Qāshqābolāq","country":"IR","lat":34.984,"lon":50.8062,"max_runway_m":3233,"scheduled":false},{"icao":"OIID","name":"Doshan Tappeh Air Base","city":"Tehran","country":"IR","lat":35.703,"lon":51.4751,"max_runway_m":2301,"scheduled":false},{"icao":"OIIE","name":"Imam Khomeini International Airport","city":"Tehran","country":"IR","lat":35.4161,"lon":51.1522,"max_runway_m":4198,"scheduled":true},{"icao":"OIII","name":"Mehrabad International Airport","city":"Tehran","country":"IR","lat":35.6892,"lon":51.3144,"max_runway_m":4041,"scheduled":true},{"icao":"OIIK","name":"Qazvin Airport","city":"Qazvin","country":"IR","lat":36.2401,"lon":50.0471,"max_runway_m":1119,"scheduled":false},{"icao":"OIIM","name":"Naja Airport","city":"Karaj","country":"IR","lat":35.7763,"lon":50.881,"max_runway_m":1106,"scheduled":false},{"icao":"OIIP","name":"Payam International Airport","city":"Karaj","country":"IR","lat":35.7761,"lon":50.8267,"max_runway_m":3659,"scheduled":true},{"icao":"OIIS","name":"Semnan Municipal Airport","city":"Semnan","country":"IR","lat":35.5911,"lon":53.4951,"max_runway_m":3578,"scheduled":true},{"icao":"OIKB","name":"Bandar Abbas International Airport","city":"Bandar Abbas","country":"IR","lat":27.2183,"lon":56.3778,"max_runway_m":3660,"scheduled":true},{"icao":"OIKJ","name":"Jiroft Airport","city":"Jiroft","country":"IR","lat":28.7235,"lon":57.675,"max_runway_m":2206,"scheduled":false},{"icao":"OIKK","name":"Ayatollah Hashemi Rafsanjani International Airport","city":"Kerman","country":"IR","lat":30.2713,"lon":56.9497,"max_runway_m":3851,"scheduled":true},{"icao":"OIKM","name":"Bam Airport","city":"Bam","country":"IR","lat":29.0842,"lon":58.45,"max_runway_m":3385,"scheduled":true},{"icao":"OIKP","name":"Havadarya Airport","city":"Bandar Abbas","country":"IR","lat":27.1583,"lon":56.1725,"max_runway_m":2598,"scheduled":false},{"icao":"OIKQ","name":"Qeshm International Airport","city":"Qeshm(Dayrestan)","country":"IR","lat":26.7546,"lon":55.9024,"max_runway_m":4226,"scheduled":true},{"icao":"OIKR","name":"Rafsanjan Airport","city":"Rafsanjan","country":"IR","lat":30.2983,"lon":56.049,"max_runway_m":2991,"scheduled":true},{"icao":"OIKY","name":"Sirjan Airport","city":"Sirjan","country":"IR","lat":29.5509,"lon":55.6727,"max_runway_m":3766,"scheduled":false},{"icao":"OIMB","name":"Birjand International Airport","city":"Birjand","country":"IR","lat":32.8965,"lon":59.2813,"max_runway_m":2902,"scheduled":true},{"icao":"OIMC","name":"Sarakhs Airport","city":"Sarakhs","country":"IR","lat":36.5012,"lon":61.0649,"max_runway_m":3986,"scheduled":false},{"icao":"OIMJ","name":"Shahrud International Airport","city":"Shahrud","country":"IR","lat":36.4249,"lon":55.1043,"max_runway_m":2791,"scheduled":false},{"icao":"OIMM","name":"Mashhad International Airport","city":"Mashhad","country":"IR","lat":36.2348,"lon":59.6429,"max_runway_m":3925,"scheduled":true},{"icao":"OIMN","name":"Bojnord Airport","city":"Bojnord","country":"IR","lat":37.493,"lon":57.3082,"max_runway_m":3225,"scheduled":true},{"icao":"OIMS","name":"Sabzevar National Airport","city":"Sabzevar","country":"IR","lat":36.1681,"lon":57.5952,"max_runway_m":3178,"scheduled":true},{"icao":"OIMT","name":"Tabas Airport","city":"Tabas","country":"IR","lat":33.6678,"lon":56.8927,"max_runway_m":3041,"scheduled":false},{"icao":"OINE","name":"Kalaleh Airport","city":"Kalaleh","country":"IR","lat":37.3833,"lon":55.452,"max_runway_m":2218,"scheduled":false},{"icao":"OING","name":"Gorgan Airport","city":"Gorgan","country":"IR","lat":36.9094,"lon":54.4013,"max_runway_m":3300,"scheduled":false},{"icao":"OINJ","name":"Bishe Kola Air Base","city":"Amol","country":"IR","lat":36.6551,"lon":52.3496,"max_runway_m":986,"scheduled":false},{"icao":"OINN","name":"Nowshahr Airport","city":"Nowshahr","country":"IR","lat":36.6643,"lon":51.4627,"max_runway_m":2035,"scheduled":true},{"icao":"OINR","name":"Ramsar Airport","city":"Ramsar","country":"IR","lat":36.907,"lon":50.6873,"max_runway_m":2270,"scheduled":true},{"icao":"OINZ","name":"Sari Dasht-e Naz International Airport","city":"Sari","country":"IR","lat":36.6444,"lon":53.1888,"max_runway_m":2648,"scheduled":true},{"icao":"OISF","name":"Fasa Airport","city":"Fasa","country":"IR","lat":28.8918,"lon":53.7233,"max_runway_m":1982,"scheduled":false},{"icao":"OISJ","name":"Jahrom Airport","city":"Jahrom","country":"IR","lat":28.5867,"lon":53.5791,"max_runway_m":2408,"scheduled":false},{"icao":"OISL","name":"Lar Airport","city":"Lar","country":"IR","lat":27.6747,"lon":54.3833,"max_runway_m":3169,"scheduled":true},{"icao":"OISR","name":"Lamerd Airport","city":"Lamerd","country":"IR","lat":27.3727,"lon":53.1888,"max_runway_m":3054,"scheduled":true},{"icao":"OISS","name":"Shiraz Shahid Dastghaib International Airport","city":"Shiraz","country":"IR","lat":29.5392,"lon":52.5898,"max_runway_m":4372,"scheduled":true},{"icao":"OISY","name":"Yasuj Airport","city":"Yasuj","country":"IR","lat":30.7022,"lon":51.543,"max_runway_m":2598,"scheduled":false},{"icao":"OITK","name":"Khoy Airport","city":"Khoy","country":"IR","lat":38.4275,"lon":44.9736,"max_runway_m":2801,"scheduled":false},{"icao":"OITM","name":"Sahand Airport","city":"Maragheh","country":"IR","lat":37.348,"lon":46.1279,"max_runway_m":2930,"scheduled":false},{"icao":"OITP","name":"Parsabad-Moghan Airport","city":"Parsabad","country":"IR","lat":39.6036,"lon":47.8815,"max_runway_m":2595,"scheduled":true},{"icao":"OITR","name":"Urmia Airport","city":"Urmia","country":"IR","lat":37.6681,"lon":45.0687,"max_runway_m":3249,"scheduled":true},{"icao":"OITT","name":"Tabriz International Airport","city":"Tabriz","country":"IR","lat":38.1339,"lon":46.235,"max_runway_m":3604,"scheduled":true},{"icao":"OITU","name":"Maku National Airport","city":"Showt","country":"IR","lat":39.1913,"lon":44.9285,"max_runway_m":3300,"scheduled":false},{"icao":"OITZ","name":"Zanjan Airport","city":"Zanjan","country":"IR","lat":36.7737,"lon":48.3594,"max_runway_m":2999,"scheduled":false},{"icao":"OIYY","name":"Shahid Sadooghi Airport","city":"Yazd","country":"IR","lat":31.9049,"lon":54.2765,"max_runway_m":4098,"scheduled":true},{"icao":"OIZB","name":"Zabol Airport","city":"Zabol","country":"IR","lat":31.0983,"lon":61.5439,"max_runway_m":3002,"scheduled":false},{"icao":"OIZC","name":"Chabahar Konarak International Airport","city":"Konarak","country":"IR","lat":25.4432,"lon":60.3822,"max_runway_m":3814,"scheduled":true},{"icao":"OIZH","name":"Zahedan International Airport","city":"Zahedan","country":"IR","lat":29.4757,"lon":60.9062,"max_runway_m":4280,"scheduled":true},{"icao":"OIZI","name":"Iranshahr Airport","city":"Iranshahr","country":"IR","lat":27.2361,"lon":60.72,"max_runway_m":2350,"scheduled":false},{"icao":"OIZS","name":"Saravan Airport","city":"Saravan","country":"IR","lat":27.4193,"lon":62.3158,"max_runway_m":2165,"scheduled":false},{"icao":"OJAI","name":"Queen Alia International Airport","city":"Amman","country":"JO","lat":31.7226,"lon":35.9932,"max_runway_m":3660,"scheduled":true},{"icao":"OJAM","name":"Marka International (Amman Civil) Airport","city":"Amman","country":"JO","lat":31.9727,"lon":35.9916,"max_runway_m":3275,"scheduled":true},{"icao":"OJAQ","name":"King Hussein International Airport","city":"Aqaba","country":"JO","lat":29.6116,"lon":35.0181,"max_runway_m":3004,"scheduled":true},{"icao":"OJHF","name":"Prince Hassan Air Base","city":"","country":"JO","lat":32.1607,"lon":37.1494,"max_runway_m":2988,"scheduled":false},{"icao":"OJHR","name":"H4 Air Base","city":"","country":"JO","lat":32.5392,"lon":38.195,"max_runway_m":2504,"scheduled":false},{"icao":"OJMF","name":"King Hussein Air College","city":"Mafraq","country":"JO","lat":32.3564,"lon":36.2592,"max_runway_m":2993,"scheduled":false},{"icao":"OJMS","name":"Muwaffaq Salti Air Base","city":"Al Azraq","country":"JO","lat":31.8256,"lon":36.782,"max_runway_m":2980,"scheduled":false},{"icao":"OKDI","name":"Udairi Army Air Field","city":"Camp Buehring","country":"KW","lat":29.6976,"lon":47.436,"max_runway_m":1590,"scheduled":false},{"icao":"OKKK","name":"Kuwait International Airport","city":"Kuwait City","country":"KW","lat":29.2245,"lon":47.9698,"max_runway_m":4580,"scheduled":true},{"icao":"OLBA","name":"Beirut Rafic Hariri International Airport","city":"Beirut","country":"LB","lat":33.8198,"lon":35.4874,"max_runway_m":3800,"scheduled":true},{"icao":"OLKA","name":"Rene Mouawad Air Base","city":"Tripoli","country":"LB","lat":34.5893,"lon":36.0113,"max_runway_m":3000,"scheduled":false},{"icao":"OLRA","name":"Rayak Air Base","city":"Rayak","country":"LB","lat":33.8508,"lon":35.9877,"max_runway_m":2969,"scheduled":false},{"icao":"OMAA","name":"Zayed International Airport","city":"Abu Dhabi","country":"AE","lat":24.441,"lon":54.6492,"max_runway_m":4106,"scheduled":true},{"icao":"OMAD","name":"Al Bateen Executive Airport","city":"Abu Dhabi","country":"AE","lat":24.4271,"lon":54.4599,"max_runway_m":3200,"scheduled":false},{"icao":"OMAH","name":"Al Hamra Auxiliary Airport","city":"Al Shuweihat","country":"AE","lat":24.074,"lon":52.4636,"max_runway_m":2501,"scheduled":false},{"icao":"OMAJ","name":"Jebel Dhanna Airport","city":"Jebel Dhanna","country":"AE","lat":24.1878,"lon":52.6139,"max_runway_m":2200,"scheduled":false},{"icao":"OMAL","name":"Al Ain International Airport","city":"Al Ain","country":"AE","lat":24.2617,"lon":55.6092,"max_runway_m":4000,"scheduled":true},{"icao":"OMAM","name":"Al Dhafra Air Base","city":"","country":"AE","lat":24.2482,"lon":54.5477,"max_runway_m":3661,"scheduled":false},{"icao":"OMAR","name":"Arzanah Airport","city":"Arzanah Island","country":"AE","lat":24.7809,"lon":52.5599,"max_runway_m":1048,"scheduled":false},{"icao":"OMAS","name":"Das Island Airport","city":"Das Island","country":"AE","lat":25.1382,"lon":52.8744,"max_runway_m":2158,"scheduled":false},{"icao":"OMAZ","name":"Zirku Airport","city":"Zirku Island","country":"AE","lat":24.8625,"lon":53.0771,"max_runway_m":1200,"scheduled":false},{"icao":"OMBY","name":"Sir Bani Yas Airport","city":"Sir Bani Yas","country":"AE","lat":24.2836,"lon":52.5803,"max_runway_m":2826,"scheduled":false},{"icao":"OMDB","name":"Dubai International Airport","city":"Dubai","country":"AE","lat":25.2498,"lon":55.371,"max_runway_m":4447,"scheduled":true},{"icao":"OMDL","name":"Delma Airport","city":"Delma Island","country":"AE","lat":24.51,"lon":52.3352,"max_runway_m":2500,"scheduled":true},{"icao":"OMDM","name":"Al Minhad Air Base","city":"Dubai","country":"AE","lat":25.0268,"lon":55.3662,"max_runway_m":3953,"scheduled":false},{"icao":"OMDW","name":"Al Maktoum International Airport","city":"Dubai(Jebel Ali)","country":"AE","lat":24.8962,"lon":55.1624,"max_runway_m":4500,"scheduled":true},{"icao":"OMFJ","name":"Fujairah International Airport","city":"Fujairah","country":"AE","lat":25.1084,"lon":56.3281,"max_runway_m":3050,"scheduled":true},{"icao":"OMRK","name":"Ras Al Khaimah International Airport","city":"Ras Al Khaimah","country":"AE","lat":25.6135,"lon":55.9388,"max_runway_m":3760,"scheduled":true},{"icao":"OMSJ","name":"Sharjah International Airport","city":"Sharjah","country":"AE","lat":25.3286,"lon":55.5172,"max_runway_m":4060,"scheduled":true},{"icao":"OOFD","name":"Fahud Airport","city":"Fahud","country":"OM","lat":22.3548,"lon":56.4841,"max_runway_m":2560,"scheduled":false},{"icao":"OOKB","name":"Khasab Airport","city":"Khasab","country":"OM","lat":26.171,"lon":56.2406,"max_runway_m":2500,"scheduled":true},{"icao":"OOMA","name":"RAFO Masirah","city":"Masirah","country":"OM","lat":20.6754,"lon":58.8905,"max_runway_m":3050,"scheduled":false},{"icao":"OOMS","name":"Muscat International Airport","city":"Muscat/Seeb","country":"OM","lat":23.6002,"lon":58.2853,"max_runway_m":4080,"scheduled":true},{"icao":"OOSA","name":"Salalah International Airport","city":"Salalah","country":"OM","lat":17.0387,"lon":54.0913,"max_runway_m":4000,"scheduled":true},{"icao":"OOSH","name":"Suhar International Airport","city":"Suhar","country":"OM","lat":24.386,"lon":56.6254,"max_runway_m":4015,"scheduled":true},{"icao":"OOTH","name":"Thumrait Air Base","city":"Thumrait","country":"OM","lat":17.666,"lon":54.0246,"max_runway_m":4000,"scheduled":false},{"icao":"OPBG","name":"Bhagatanwala Airport","city":"Bhagatanwala","country":"PK","lat":32.0561,"lon":72.9484,"max_runway_m":2734,"scheduled":false},{"icao":"OPBW","name":"Bahawalpur Airport","city":"Bahawalpur","country":"PK","lat":29.3481,"lon":71.718,"max_runway_m":2848,"scheduled":true},{"icao":"OPCH","name":"Chitral Airport","city":"Chitral","country":"PK","lat":35.8862,"lon":71.7999,"max_runway_m":1750,"scheduled":true},{"icao":"OPDG","name":"Dera Ghazi Khan Airport","city":"Dera Ghazi Khan","country":"PK","lat":29.961,"lon":70.4859,"max_runway_m":1981,"scheduled":true},{"icao":"OPDI","name":"Dera Ismael Khan Airport [IN-ACTIVE]","city":"Dera Ismael Khan","country":"PK","lat":31.9094,"lon":70.8966,"max_runway_m":1524,"scheduled":false},{"icao":"OPFA","name":"Faisalabad International Airport","city":"Faisalabad","country":"PK","lat":31.3649,"lon":72.9953,"max_runway_m":2842,"scheduled":true},{"icao":"OPGD","name":"New Gwadar International Airport","city":"Gurandani","country":"PK","lat":25.2967,"lon":62.4988,"max_runway_m":3658,"scheduled":true},{"icao":"OPGT","name":"Gilgit Airport","city":"Gilgit","country":"PK","lat":35.9188,"lon":74.3336,"max_runway_m":1646,"scheduled":true},{"icao":"OPIS","name":"Islamabad International Airport","city":"Attock","country":"PK","lat":33.549,"lon":72.8257,"max_runway_m":3658,"scheduled":true},{"icao":"OPJA","name":"Shahbaz Air Base","city":"Jacobabad","country":"PK","lat":28.2842,"lon":68.4497,"max_runway_m":3073,"scheduled":false},{"icao":"OPKC","name":"Jinnah International Airport","city":"Karachi","country":"PK","lat":24.9065,"lon":67.1608,"max_runway_m":3400,"scheduled":true},{"icao":"OPKD","name":"Hyderabad Airport","city":"Hyderabad","country":"PK","lat":25.3181,"lon":68.3661,"max_runway_m":2133,"scheduled":true},{"icao":"OPLA","name":"Allama Iqbal International Airport","city":"Lahore","country":"PK","lat":31.5216,"lon":74.4036,"max_runway_m":3360,"scheduled":true},{"icao":"OPMA","name":"Mangla Airport","city":"Mangla","country":"PK","lat":33.0501,"lon":73.6384,"max_runway_m":1524,"scheduled":false},{"icao":"OPMF","name":"Muzaffarabad Airport","city":"Muzaffarabad","country":"PK","lat":34.3388,"lon":73.5089,"max_runway_m":914,"scheduled":true},{"icao":"OPMI","name":"Mianwali Air Base","city":"Mianwali","country":"PK","lat":32.5631,"lon":71.5707,"max_runway_m":3154,"scheduled":false},{"icao":"OPMJ","name":"Moenjodaro Airport","city":"Moenjodaro","country":"PK","lat":27.3352,"lon":68.1431,"max_runway_m":1985,"scheduled":false},{"icao":"OPMR","name":"Masroor Air Base","city":"Karachi","country":"PK","lat":24.8936,"lon":66.9388,"max_runway_m":2750,"scheduled":false},{"icao":"OPMS","name":"Minhas Air Base","city":"Kamra","country":"PK","lat":33.8691,"lon":72.4009,"max_runway_m":3033,"scheduled":false},{"icao":"OPMT","name":"Multan International Airport","city":"Multan","country":"PK","lat":30.2032,"lon":71.4191,"max_runway_m":3765,"scheduled":true},{"icao":"OPNH","name":"Shaheed Benazirabad Airport","city":"Nawabashah","country":"PK","lat":26.2194,"lon":68.3901,"max_runway_m":2743,"scheduled":true},{"icao":"OPOK","name":"Okara Cantonment Airstrip","city":"Okara","country":"PK","lat":30.741,"lon":73.3577,"max_runway_m":3351,"scheduled":false},{"icao":"OPPG","name":"Panjgur Airport","city":"Panjgur","country":"PK","lat":26.9545,"lon":64.1325,"max_runway_m":1524,"scheduled":false},{"icao":"OPPS","name":"Bacha Khan International Airport","city":"Peshawar","country":"PK","lat":33.9939,"lon":71.5146,"max_runway_m":2743,"scheduled":true},{"icao":"OPQS","name":"Dhamial Army Airbase","city":"Rawalpindi","country":"PK","lat":33.5602,"lon":73.0332,"max_runway_m":2040,"scheduled":false},{"icao":"OPQT","name":"Quetta International Airport","city":"Quetta","country":"PK","lat":30.2514,"lon":66.9378,"max_runway_m":3658,"scheduled":true},{"icao":"OPRK","name":"Shaikh Zaid Airport","city":"Rahim Yar Khan","country":"PK","lat":28.3839,"lon":70.2796,"max_runway_m":3000,"scheduled":true},{"icao":"OPRN","name":"PAF Base Nur Khan (Benazir Bhutto International Airport)","city":"Rawalpindi","country":"PK","lat":33.6167,"lon":73.0992,"max_runway_m":3287,"scheduled":false},{"icao":"OPRQ","name":"Rafiqui Air Base","city":"Shorkot","country":"PK","lat":30.7581,"lon":72.2825,"max_runway_m":3048,"scheduled":false},{"icao":"OPRS","name":"Risalpur Air Base","city":"Risalpur","country":"PK","lat":34.0811,"lon":71.9726,"max_runway_m":2769,"scheduled":false},{"icao":"OPRT","name":"Rawalakot Airport","city":"Rawalakot","country":"PK","lat":33.8497,"lon":73.7981,"max_runway_m":902,"scheduled":false},{"icao":"OPSD","name":"Skardu International Airport","city":"Skardu","country":"PK","lat":35.3387,"lon":75.5386,"max_runway_m":3656,"scheduled":true},{"icao":"OPSF","name":"Faisal Air Base","city":"Karachi","country":"PK","lat":24.8742,"lon":67.1185,"max_runway_m":2457,"scheduled":false},{"icao":"OPSK","name":"Begum Nusrat Bhutto International Airport Sukkur","city":"Sukkur","country":"PK","lat":27.722,"lon":68.7917,"max_runway_m":2743,"scheduled":true},{"icao":"OPSN","name":"Sehwan Sharif Airport","city":"Sehwan Sharif","country":"PK","lat":26.4731,"lon":67.7172,"max_runway_m":2000,"scheduled":false},{"icao":"OPSS","name":"Saidu Sharif Airport","city":"Saidu Sharif","country":"PK","lat":34.8136,"lon":72.3528,"max_runway_m":1751,"scheduled":false},{"icao":"OPST","name":"Sialkot International Airport","city":"Sialkot","country":"PK","lat":32.5359,"lon":74.3646,"max_runway_m":3600,"scheduled":true},{"icao":"OPSU","name":"Sui Airport","city":"Sui","country":"PK","lat":28.6451,"lon":69.1769,"max_runway_m":1829,"scheduled":false},{"icao":"OPSW","name":"Sawan Airport","city":"Sawan Gas Field","country":"PK","lat":26.9662,"lon":68.8781,"max_runway_m":1665,"scheduled":false},{"icao":"OPTH","name":"Talhar Airport","city":"Badin","country":"PK","lat":24.8415,"lon":68.8384,"max_runway_m":2733,"scheduled":false},{"icao":"OPTU","name":"Turbat International Airport","city":"Turbat","country":"PK","lat":25.9848,"lon":63.0289,"max_runway_m":2750,"scheduled":true},{"icao":"OPWN","name":"Wana Airport","city":"Waana","country":"PK","lat":32.3047,"lon":69.5704,"max_runway_m":912,"scheduled":false},{"icao":"OPZB","name":"Zhob Airport","city":"Fort Sandeman","country":"PK","lat":31.3584,"lon":69.4636,"max_runway_m":1829,"scheduled":true},{"icao":"ORAA","name":"Al Asad Air Base","city":"Hīt","country":"IQ","lat":33.7856,"lon":42.4412,"max_runway_m":4000,"scheduled":false},{"icao":"ORAT","name":"Al Taqaddum Air Base","city":"Al Habbaniyah","country":"IQ","lat":33.3381,"lon":43.5971,"max_runway_m":4019,"scheduled":false},{"icao":"ORBD","name":"Balad Southeast Airport / Joint Base Balad","city":"Al Bakr","country":"IQ","lat":33.9402,"lon":44.3616,"max_runway_m":3502,"scheduled":false},{"icao":"ORBI","name":"Baghdad International Airport / New Al Muthana Air Base","city":"Baghdad","country":"IQ","lat":33.2625,"lon":44.2346,"max_runway_m":4000,"scheduled":true},{"icao":"ORBM","name":"Mosul International Airport","city":"Mosul","country":"IQ","lat":36.3058,"lon":43.1474,"max_runway_m":2650,"scheduled":false},{"icao":"ORBR","name":"Bashur Airfield","city":"Bashur","country":"IQ","lat":36.5337,"lon":44.3399,"max_runway_m":2235,"scheduled":false},{"icao":"ORER","name":"Erbil International Airport","city":"Arbil","country":"IQ","lat":36.236,"lon":43.9466,"max_runway_m":4800,"scheduled":true},{"icao":"ORKK","name":"Kirkuk International Airport","city":"Kirkuk","country":"IQ","lat":35.4695,"lon":44.3489,"max_runway_m":2990,"scheduled":true},{"icao":"ORMM","name":"Basra International Airport","city":"Basra","country":"IQ","lat":30.5491,"lon":47.6621,"max_runway_m":4000,"scheduled":true},{"icao":"ORNI","name":"Al Najaf International Airport","city":"Najaf","country":"IQ","lat":31.9911,"lon":44.405,"max_runway_m":3000,"scheduled":true},{"icao":"ORQW","name":"Qayyarah West Airport","city":"Qayyarah","country":"IQ","lat":35.7672,"lon":43.1251,"max_runway_m":3501,"scheduled":false},{"icao":"ORSH","name":"Al Sahra Army Air Field","city":"Tikrit","country":"IQ","lat":34.6732,"lon":43.543,"max_runway_m":3117,"scheduled":false},{"icao":"ORSU","name":"Jalal Talabani International Airport","city":"Sulaymaniyah","country":"IQ","lat":35.5605,"lon":45.3151,"max_runway_m":3499,"scheduled":true},{"icao":"ORTL","name":"Ali Air Base","city":"Nasiriyah","country":"IQ","lat":30.9358,"lon":46.0901,"max_runway_m":3333,"scheduled":false},{"icao":"ORUB","name":"Ubaydah Bin Al Jarrah Airport","city":"Al Kut","country":"IQ","lat":32.482,"lon":45.7571,"max_runway_m":3556,"scheduled":false},{"icao":"OSAP","name":"Aleppo International Airport","city":"Aleppo","country":"SY","lat":36.1813,"lon":37.2269,"max_runway_m":2910,"scheduled":true},{"icao":"OSDI","name":"Damascus International Airport","city":"Damascus","country":"SY","lat":33.4115,"lon":36.5156,"max_runway_m":3600,"scheduled":true},{"icao":"OSDZ","name":"Deir ez-Zor Airport","city":"Deir ez-Zor","country":"SY","lat":35.2854,"lon":40.176,"max_runway_m":3000,"scheduled":false},{"icao":"OSKL","name":"Qamishli International Airport","city":"Qamishli","country":"SY","lat":37.0206,"lon":41.1914,"max_runway_m":3615,"scheduled":true},{"icao":"OSLK","name":"Latakia International Airport","city":"Latakia","country":"SY","lat":35.4011,"lon":35.9487,"max_runway_m":2797,"scheduled":true},{"icao":"OSPR","name":"Palmyra Airport","city":"Tadmur","country":"SY","lat":34.5574,"lon":38.3169,"max_runway_m":2880,"scheduled":false},{"icao":"OTBD","name":"Doha International Airport","city":"Doha","country":"QA","lat":25.2594,"lon":51.5655,"max_runway_m":4572,"scheduled":true},{"icao":"OTBH","name":"Al Udeid Air Base","city":"Ar Rayyan","country":"QA","lat":25.1173,"lon":51.315,"max_runway_m":3750,"scheduled":false},{"icao":"OTHH","name":"Hamad International Airport","city":"Doha","country":"QA","lat":25.2731,"lon":51.6081,"max_runway_m":4850,"scheduled":true},{"icao":"OYAA","name":"Aden International Airport","city":"Aden","country":"YE","lat":12.8296,"lon":45.03,"max_runway_m":3100,"scheduled":true},{"icao":"OYAT","name":"Ataq Airport","city":"Ataq","country":"YE","lat":14.5513,"lon":46.8262,"max_runway_m":2890,"scheduled":false},{"icao":"OYBA","name":"Al Badie Airport","city":"Dhula'","country":"YE","lat":18.7207,"lon":50.8358,"max_runway_m":3036,"scheduled":false},{"icao":"OYBN","name":"Beihan Airport","city":"Beihan","country":"YE","lat":14.7817,"lon":45.7197,"max_runway_m":1670,"scheduled":false},{"icao":"OYGD","name":"Al Ghaydah International Airport","city":"Al Ghaydah","country":"YE","lat":16.1933,"lon":52.1742,"max_runway_m":2700,"scheduled":true},{"icao":"OYRN","name":"Riyan International Airport","city":"Mukalla(Riyan)","country":"YE","lat":14.6622,"lon":49.3753,"max_runway_m":3000,"scheduled":true},{"icao":"OYSN","name":"Sanaa International Airport","city":"Sanaa","country":"YE","lat":15.4763,"lon":44.2197,"max_runway_m":3252,"scheduled":true},{"icao":"OYSQ","name":"Socotra Airport","city":"Mori","country":"YE","lat":12.6321,"lon":53.9062,"max_runway_m":3300,"scheduled":true},{"icao":"OYSY","name":"Seiyun Hadhramaut International Airport","city":"Seiyun","country":"YE","lat":15.9659,"lon":48.7881,"max_runway_m":3000,"scheduled":true},{"icao":"OYTZ","name":"Taiz International Airport","city":"Taiz","country":"YE","lat":13.686,"lon":44.1391,"max_runway_m":3060,"scheduled":true},{"icao":"RCAY","name":"Gangshan Air Force Base","city":"Kaohsiung (Gangshan)","country":"TW","lat":22.7825,"lon":120.263,"max_runway_m":2444,"scheduled":false},{"icao":"RCBS","name":"Kinmen Airport","city":"Shang-I","country":"TW","lat":24.4279,"lon":118.359,"max_runway_m":3000,"scheduled":true},{"icao":"RCDI","name":"Longtan Air Base","city":"Longtan","country":"TW","lat":24.8536,"lon":121.2364,"max_runway_m":994,"scheduled":false},{"icao":"RCFG","name":"Matsu Nangan Airport","city":"Matsu (Nangan)","country":"TW","lat":26.1597,"lon":119.9584,"max_runway_m":1579,"scheduled":true},{"icao":"RCGI","name":"Lüdao Airport","city":"Lüdao","country":"TW","lat":22.6739,"lon":121.466,"max_runway_m":992,"scheduled":false},{"icao":"RCKH","name":"Kaohsiung International Airport","city":"Kaohsiung (Xiaogang)","country":"TW","lat":22.5771,"lon":120.35,"max_runway_m":3150,"scheduled":true},{"icao":"RCKU","name":"Chiayi Airport","city":"Shuishang","country":"TW","lat":23.4626,"lon":120.3905,"max_runway_m":3050,"scheduled":true},{"icao":"RCKW","name":"Hengchun Airport","city":"Hengchun","country":"TW","lat":22.0411,"lon":120.73,"max_runway_m":1700,"scheduled":false},{"icao":"RCLM","name":"Dongsha Island (Pratas Island) Airport","city":"Kaohsiung (Cijin - Pratas Island)","country":"TW","lat":20.7066,"lon":116.721,"max_runway_m":1550,"scheduled":false},{"icao":"RCLY","name":"Lanyu Airport","city":"Orchid Island","country":"TW","lat":22.027,"lon":121.535,"max_runway_m":1174,"scheduled":true},{"icao":"RCMQ","name":"Taichung International Airport / Ching Chuang Kang Air Base","city":"Taichung (Qingshui)","country":"TW","lat":24.2647,"lon":120.621,"max_runway_m":3658,"scheduled":true},{"icao":"RCMT","name":"Matsu Beigan Airport","city":"Matsu (Beigan)","country":"TW","lat":26.2242,"lon":120.003,"max_runway_m":1150,"scheduled":true},{"icao":"RCNN","name":"Tainan International Airport / Tainan Air Base","city":"Tainan (Rende)","country":"TW","lat":22.9504,"lon":120.206,"max_runway_m":3050,"scheduled":true},{"icao":"RCQC","name":"Penghu Magong Airport","city":"Huxi","country":"TW","lat":23.5687,"lon":119.628,"max_runway_m":3000,"scheduled":true},{"icao":"RCQS","name":"Chihhang Air Base","city":"Taitung City","country":"TW","lat":22.7931,"lon":121.182,"max_runway_m":3370,"scheduled":false},{"icao":"RCSQ","name":"Pingtung Air Force Base North","city":"Pingtung","country":"TW","lat":22.7002,"lon":120.482,"max_runway_m":2442,"scheduled":true},{"icao":"RCSS","name":"Taipei Songshan International Airport","city":"Taipei (Songshan)","country":"TW","lat":25.0672,"lon":121.5528,"max_runway_m":2605,"scheduled":true},{"icao":"RCTP","name":"Taiwan Taoyuan International Airport","city":"Taoyuan","country":"TW","lat":25.0777,"lon":121.233,"max_runway_m":3660,"scheduled":true},{"icao":"RCWA","name":"Wang'an Airport","city":"Wang'an","country":"TW","lat":23.3691,"lon":119.5036,"max_runway_m":930,"scheduled":false},{"icao":"RCYU","name":"Hualien Chiashan Airport","city":"Hualien City","country":"TW","lat":24.0232,"lon":121.618,"max_runway_m":2745,"scheduled":true},{"icao":"RJAA","name":"Narita International Airport","city":"Narita","country":"JP","lat":35.7686,"lon":140.3887,"max_runway_m":4000,"scheduled":true},{"icao":"RJAF","name":"Shinshu-Matsumoto Airport","city":"Matsumoto","country":"JP","lat":36.1668,"lon":137.923,"max_runway_m":1999,"scheduled":true},{"icao":"RJAH","name":"Ibaraki Airport","city":"Omitama","country":"JP","lat":36.1815,"lon":140.4144,"max_runway_m":2700,"scheduled":true},{"icao":"RJAM","name":"JMSDF Minami Torishima Air Base","city":"Ogasawara","country":"JP","lat":24.2897,"lon":153.979,"max_runway_m":1372,"scheduled":false},{"icao":"RJAW","name":"Ioto (Iwo Jima) Airbase","city":"Ogasawara","country":"JP","lat":24.7842,"lon":141.3226,"max_runway_m":2652,"scheduled":false},{"icao":"RJBB","name":"Kansai International Airport","city":"Osaka","country":"JP","lat":34.4273,"lon":135.244,"max_runway_m":4000,"scheduled":true},{"icao":"RJBD","name":"Nanki Shirahama Airport","city":"Shirahama","country":"JP","lat":33.6622,"lon":135.364,"max_runway_m":1999,"scheduled":true},{"icao":"RJBE","name":"Kobe Airport","city":"Kobe","country":"JP","lat":34.6328,"lon":135.224,"max_runway_m":2500,"scheduled":true},{"icao":"RJBK","name":"Kohnan Airport","city":"Okayama","country":"JP","lat":34.5908,"lon":133.933,"max_runway_m":1319,"scheduled":false},{"icao":"RJBT","name":"Konotori Tajima Airport","city":"Toyooka","country":"JP","lat":35.5128,"lon":134.787,"max_runway_m":1200,"scheduled":true},{"icao":"RJCB","name":"Tokachi-Obihiro Airport","city":"Obihiro","country":"JP","lat":42.7333,"lon":143.217,"max_runway_m":2500,"scheduled":true},{"icao":"RJCC","name":"New Chitose Airport","city":"Sapporo","country":"JP","lat":42.7748,"lon":141.6904,"max_runway_m":3000,"scheduled":true},{"icao":"RJCH","name":"Hakodate Airport","city":"Hakodate","country":"JP","lat":41.77,"lon":140.822,"max_runway_m":3000,"scheduled":true},{"icao":"RJCJ","name":"JASDF Chitose Air Base","city":"Chitose","country":"JP","lat":42.7945,"lon":141.666,"max_runway_m":4000,"scheduled":false},{"icao":"RJCK","name":"Kushiro Airport","city":"Kushiro","country":"JP","lat":43.041,"lon":144.193,"max_runway_m":2500,"scheduled":true},{"icao":"RJCM","name":"Memanbetsu Airport","city":"Ōzora","country":"JP","lat":43.8806,"lon":144.164,"max_runway_m":2500,"scheduled":true},{"icao":"RJCN","name":"Nakashibetsu Airport","city":"Nakashibetsu","country":"JP","lat":43.5775,"lon":144.96,"max_runway_m":1999,"scheduled":true},{"icao":"RJCO","name":"Sapporo Okadama Airport","city":"Sapporo","country":"JP","lat":43.1174,"lon":141.3813,"max_runway_m":1500,"scheduled":true},{"icao":"RJCR","name":"Rebun Airport","city":"Rebun","country":"JP","lat":45.455,"lon":141.039,"max_runway_m":800,"scheduled":false},{"icao":"RJCT","name":"Tokachi Airport","city":"Obihiro","country":"JP","lat":42.8905,"lon":143.158,"max_runway_m":1500,"scheduled":false},{"icao":"RJCW","name":"Wakkanai Airport","city":"Wakkanai","country":"JP","lat":45.4042,"lon":141.801,"max_runway_m":1999,"scheduled":true},{"icao":"RJDA","name":"Amakusa Airport","city":"Amakusa","country":"JP","lat":32.4825,"lon":130.159,"max_runway_m":1000,"scheduled":true},{"icao":"RJDB","name":"Iki Airport","city":"Iki","country":"JP","lat":33.749,"lon":129.785,"max_runway_m":1320,"scheduled":true},{"icao":"RJDC","name":"Yamaguchi Ube Airport","city":"Ube","country":"JP","lat":33.93,"lon":131.279,"max_runway_m":2499,"scheduled":true},{"icao":"RJDT","name":"Tsushima Airport","city":"Tsushima","country":"JP","lat":34.2849,"lon":129.331,"max_runway_m":1900,"scheduled":true},{"icao":"RJEB","name":"Monbetsu Airport","city":"Monbetsu","country":"JP","lat":44.3039,"lon":143.404,"max_runway_m":2000,"scheduled":true},{"icao":"RJEC","name":"Asahikawa Airport","city":"Higashikagura","country":"JP","lat":43.6708,"lon":142.447,"max_runway_m":2499,"scheduled":true},{"icao":"RJEO","name":"Okushiri Airport","city":"Okushiri Island","country":"JP","lat":42.0717,"lon":139.433,"max_runway_m":1500,"scheduled":true},{"icao":"RJER","name":"Rishiri Airport","city":"Rishiri","country":"JP","lat":45.242,"lon":141.186,"max_runway_m":1800,"scheduled":true},{"icao":"RJFA","name":"JASDF Ashiya Air Base","city":"Ashiya","country":"JP","lat":33.8831,"lon":130.653,"max_runway_m":1640,"scheduled":false},{"icao":"RJFC","name":"Yakushima Airport","city":"Yakushima","country":"JP","lat":30.3856,"lon":130.659,"max_runway_m":1500,"scheduled":true},{"icao":"RJFE","name":"Fukue Airport","city":"Goto","country":"JP","lat":32.6663,"lon":128.833,"max_runway_m":2000,"scheduled":true},{"icao":"RJFF","name":"Fukuoka Airport","city":"Fukuoka","country":"JP","lat":33.5859,"lon":130.451,"max_runway_m":2800,"scheduled":true},{"icao":"RJFG","name":"New Tanegashima Airport","city":"Tanegashima","country":"JP","lat":30.6051,"lon":130.991,"max_runway_m":1995,"scheduled":true},{"icao":"RJFK","name":"Kagoshima Airport","city":"Kagoshima","country":"JP","lat":31.8034,"lon":130.719,"max_runway_m":2999,"scheduled":true},{"icao":"RJFM","name":"Miyazaki Airport","city":"Miyazaki","country":"JP","lat":31.8772,"lon":131.449,"max_runway_m":2499,"scheduled":true},{"icao":"RJFN","name":"JASDF Nyūtabaru Air Base","city":"Shintomi","country":"JP","lat":32.0836,"lon":131.451,"max_runway_m":2701,"scheduled":false},{"icao":"RJFO","name":"Oita Airport","city":"Oita","country":"JP","lat":33.4794,"lon":131.737,"max_runway_m":2999,"scheduled":true},{"icao":"RJFR","name":"Kitakyushu Airport","city":"Kitakyushu","country":"JP","lat":33.8459,"lon":131.035,"max_runway_m":2500,"scheduled":true},{"icao":"RJFS","name":"Kyushu Saga International Airport","city":"Saga","country":"JP","lat":33.1497,"lon":130.302,"max_runway_m":2000,"scheduled":true},{"icao":"RJFT","name":"Kumamoto Airport","city":"Kumamoto","country":"JP","lat":32.8373,"lon":130.855,"max_runway_m":2999,"scheduled":true},{"icao":"RJFU","name":"Nagasaki Airport","city":"Nagasaki","country":"JP","lat":32.9169,"lon":129.914,"max_runway_m":2999,"scheduled":true},{"icao":"RJFY","name":"JMSDF Kanoya Air Base","city":"Kanoya","country":"JP","lat":31.3667,"lon":130.8388,"max_runway_m":2250,"scheduled":false},{"icao":"RJFZ","name":"JASDF Tsuiki Air Base","city":"Tsuiki","country":"JP","lat":33.685,"lon":131.04,"max_runway_m":2399,"scheduled":false},{"icao":"RJKA","name":"Amami Airport","city":"Amami","country":"JP","lat":28.4306,"lon":129.713,"max_runway_m":1999,"scheduled":true},{"icao":"RJKB","name":"Okinoerabu Airport","city":"Wadomari","country":"JP","lat":27.4316,"lon":128.7056,"max_runway_m":1350,"scheduled":true},{"icao":"RJKI","name":"Kikai Airport","city":"Kikai","country":"JP","lat":28.3213,"lon":129.928,"max_runway_m":1313,"scheduled":true},{"icao":"RJKN","name":"Tokunoshima Airport","city":"Amagi","country":"JP","lat":27.8364,"lon":128.8814,"max_runway_m":2000,"scheduled":true},{"icao":"RJNA","name":"Nagoya Airport / JASDF Komaki Air Base","city":"Nagoya","country":"JP","lat":35.2558,"lon":136.9241,"max_runway_m":2740,"scheduled":true},{"icao":"RJNF","name":"Fukui Airport","city":"Fukui","country":"JP","lat":36.1428,"lon":136.224,"max_runway_m":1319,"scheduled":false},{"icao":"RJNG","name":"Gifu Airport","city":"Gifu","country":"JP","lat":35.3941,"lon":136.87,"max_runway_m":2701,"scheduled":false},{"icao":"RJNH","name":"JASDF Hamamatsu Air Base","city":"Hamamatsu","country":"JP","lat":34.7502,"lon":137.703,"max_runway_m":2550,"scheduled":false},{"icao":"RJNK","name":"Komatsu Airport / JASDF Komatsu Air Base","city":"Kanazawa","country":"JP","lat":36.3934,"lon":136.4069,"max_runway_m":2705,"scheduled":true},{"icao":"RJNO","name":"Oki Global Geopark Airport","city":"Okinoshima","country":"JP","lat":36.1784,"lon":133.3236,"max_runway_m":1991,"scheduled":true},{"icao":"RJNS","name":"Mount Fuji Shizuoka Airport","city":"Makinohara / Shimada","country":"JP","lat":34.795,"lon":138.191,"max_runway_m":2200,"scheduled":true},{"icao":"RJNT","name":"Toyama Kitokito Airport","city":"Toyama","country":"JP","lat":36.6484,"lon":137.1874,"max_runway_m":2000,"scheduled":true},{"icao":"RJNW","name":"Noto Satoyama Airport","city":"Wajima","country":"JP","lat":37.2931,"lon":136.962,"max_runway_m":2000,"scheduled":true},{"icao":"RJNY","name":"JASDF Shizuhama Air Base","city":"Yaizu","country":"JP","lat":34.8128,"lon":138.298,"max_runway_m":1500,"scheduled":false},{"icao":"RJOA","name":"Hiroshima Airport","city":"Hiroshima","country":"JP","lat":34.4361,"lon":132.919,"max_runway_m":3000,"scheduled":true},{"icao":"RJOB","name":"Okayama Momotaro Airport","city":"Okayama","country":"JP","lat":34.7569,"lon":133.855,"max_runway_m":3000,"scheduled":true},{"icao":"RJOC","name":"Izumo Enmusubi Airport","city":"Izumo","country":"JP","lat":35.4136,"lon":132.89,"max_runway_m":2000,"scheduled":true},{"icao":"RJOF","name":"JASDF Hofu Airfield","city":"Hofu","country":"JP","lat":34.0347,"lon":131.5487,"max_runway_m":1480,"scheduled":false},{"icao":"RJOH","name":"Yonago Kitaro Airport / JASDF Miho Air Base","city":"Yonago","country":"JP","lat":35.4922,"lon":133.236,"max_runway_m":2500,"scheduled":true},{"icao":"RJOI","name":"Iwakuni Kintaikyo Airport","city":"Iwakuni","country":"JP","lat":34.1463,"lon":132.2472,"max_runway_m":2438,"scheduled":true},{"icao":"RJOK","name":"Kochi Ryoma Airport","city":"Nankoku","country":"JP","lat":33.5452,"lon":133.6702,"max_runway_m":2500,"scheduled":true},{"icao":"RJOM","name":"Matsuyama Airport","city":"Matsuyama","country":"JP","lat":33.8269,"lon":132.7001,"max_runway_m":2499,"scheduled":true},{"icao":"RJOO","name":"Osaka Itami International Airport","city":"Osaka","country":"JP","lat":34.7809,"lon":135.4408,"max_runway_m":2999,"scheduled":true},{"icao":"RJOR","name":"Tottori Sand Dunes Conan Airport","city":"Tottori","country":"JP","lat":35.5301,"lon":134.165,"max_runway_m":2000,"scheduled":true},{"icao":"RJOS","name":"Tokushima Awaodori Airport / JMSDF Tokushima Air Base","city":"Tokushima","country":"JP","lat":34.1326,"lon":134.6078,"max_runway_m":1999,"scheduled":true},{"icao":"RJOT","name":"Takamatsu Airport","city":"Takamatsu","country":"JP","lat":34.215,"lon":134.0155,"max_runway_m":2499,"scheduled":true},{"icao":"RJOW","name":"Iwami Airport","city":"Masuda","country":"JP","lat":34.6764,"lon":131.79,"max_runway_m":2000,"scheduled":true},{"icao":"RJOY","name":"Yao Airport","city":"Yao","country":"JP","lat":34.5963,"lon":135.603,"max_runway_m":1490,"scheduled":false},{"icao":"RJOZ","name":"Ozuki Airfield","city":"Shimonoseki","country":"JP","lat":34.0453,"lon":131.052,"max_runway_m":1201,"scheduled":false},{"icao":"RJSA","name":"Aomori Airport","city":"Aomori","country":"JP","lat":40.7338,"lon":140.6895,"max_runway_m":3001,"scheduled":true},{"icao":"RJSC","name":"Yamagata Airport","city":"Higashine","country":"JP","lat":38.4119,"lon":140.371,"max_runway_m":1999,"scheduled":true},{"icao":"RJSD","name":"Sado Airport","city":"Sado","country":"JP","lat":38.0602,"lon":138.414,"max_runway_m":1033,"scheduled":true},{"icao":"RJSF","name":"Fukushima Airport","city":"Sukagawa","country":"JP","lat":37.2274,"lon":140.431,"max_runway_m":2500,"scheduled":true},{"icao":"RJSH","name":"JMSDF Hachinohe Air Base / Hachinohe Airport","city":"Hachinohe","country":"JP","lat":40.5512,"lon":141.4654,"max_runway_m":2249,"scheduled":false},{"icao":"RJSI","name":"Iwate Hanamaki Airport","city":"Hanamaki","country":"JP","lat":39.4286,"lon":141.135,"max_runway_m":2500,"scheduled":true},{"icao":"RJSK","name":"Akita Airport","city":"Akita","country":"JP","lat":39.6156,"lon":140.219,"max_runway_m":2499,"scheduled":true},{"icao":"RJSM","name":"Misawa Airport / Misawa Air Base","city":"Misawa","country":"JP","lat":40.7032,"lon":141.368,"max_runway_m":3048,"scheduled":true},{"icao":"RJSN","name":"Niigata Airport","city":"Niigata","country":"JP","lat":37.9542,"lon":139.1122,"max_runway_m":2499,"scheduled":true},{"icao":"RJSR","name":"Odate Noshiro Airport","city":"Kitaakita","country":"JP","lat":40.1919,"lon":140.371,"max_runway_m":2000,"scheduled":true},{"icao":"RJSS","name":"Sendai Airport","city":"Natori","country":"JP","lat":38.1397,"lon":140.917,"max_runway_m":3000,"scheduled":true},{"icao":"RJST","name":"JASDF Matsushima Air Base","city":"Ishinomaki","country":"JP","lat":38.4049,"lon":141.22,"max_runway_m":2701,"scheduled":false},{"icao":"RJSY","name":"Shonai Airport","city":"Shonai","country":"JP","lat":38.8122,"lon":139.787,"max_runway_m":1999,"scheduled":true},{"icao":"RJTA","name":"JMSDF Atsugi Air Base / Naval Air Facility Atsugi","city":"Ayase / Yamato","country":"JP","lat":35.4546,"lon":139.45,"max_runway_m":2438,"scheduled":false},{"icao":"RJTE","name":"JMSDF Tateyama Air Base","city":"Tateyama","country":"JP","lat":34.9871,"lon":139.829,"max_runway_m":300,"scheduled":false},{"icao":"RJTF","name":"Chofu Airport","city":"Chofu","country":"JP","lat":35.6717,"lon":139.528,"max_runway_m":800,"scheduled":true},{"icao":"RJTH","name":"Hachijojima Airport","city":"Hachijojima","country":"JP","lat":33.1148,"lon":139.7856,"max_runway_m":2000,"scheduled":true},{"icao":"RJTJ","name":"Iruma Air Base","city":"Sayama","country":"JP","lat":35.8419,"lon":139.411,"max_runway_m":2000,"scheduled":false},{"icao":"RJTK","name":"JGSDF Kisarazu Airfield","city":"Kisarazu","country":"JP","lat":35.3983,"lon":139.91,"max_runway_m":1830,"scheduled":false},{"icao":"RJTL","name":"JMSDF Shimofusa Air Base","city":"Matsudo","country":"JP","lat":35.7989,"lon":140.011,"max_runway_m":2249,"scheduled":false},{"icao":"RJTO","name":"Oshima Airport","city":"Izu Oshima","country":"JP","lat":34.782,"lon":139.36,"max_runway_m":1800,"scheduled":true},{"icao":"RJTQ","name":"Miyakejima Airport","city":"Miyakejima","country":"JP","lat":34.0736,"lon":139.56,"max_runway_m":1326,"scheduled":true},{"icao":"RJTT","name":"Tokyo Haneda International Airport","city":"Tokyo","country":"JP","lat":35.5497,"lon":139.787,"max_runway_m":3360,"scheduled":true},{"icao":"RJTU","name":"Utsunomiya Air Field","city":"Utsunomiya","country":"JP","lat":36.5145,"lon":139.871,"max_runway_m":1698,"scheduled":false},{"icao":"RJTY","name":"Yokota Air Base","city":"Fussa","country":"JP","lat":35.7485,"lon":139.348,"max_runway_m":3353,"scheduled":false},{"icao":"RKJB","name":"Muan International Airport","city":"Muan (Piseo-ri)","country":"KR","lat":34.9914,"lon":126.3828,"max_runway_m":2800,"scheduled":true},{"icao":"RKJJ","name":"Gwangju Airport","city":"Gwangju","country":"KR","lat":35.1232,"lon":126.8054,"max_runway_m":2835,"scheduled":true},{"icao":"RKJK","name":"Gunsan Airport / Gunsan Air Base","city":"Gunsan","country":"KR","lat":35.9038,"lon":126.616,"max_runway_m":2743,"scheduled":true},{"icao":"RKJM","name":"Mokpo Air Base","city":"Gonghang-ro (Mokpo)","country":"KR","lat":34.759,"lon":126.3803,"max_runway_m":1600,"scheduled":false},{"icao":"RKJU","name":"Jeonju (G 703) Air Base","city":"Jeonju","country":"KR","lat":35.8783,"lon":127.1189,"max_runway_m":1463,"scheduled":false},{"icao":"RKJY","name":"Yeosu Airport","city":"Yeosu","country":"KR","lat":34.8423,"lon":127.617,"max_runway_m":2100,"scheduled":true},{"icao":"RKNN","name":"Gangneung Airport (K-18)","city":"Gangneung","country":"KR","lat":37.7536,"lon":128.9439,"max_runway_m":2743,"scheduled":false},{"icao":"RKNW","name":"Wonju Airport / Hoengseong Air Base (K-38/K-46)","city":"Wonju","country":"KR","lat":37.4371,"lon":127.9601,"max_runway_m":2743,"scheduled":true},{"icao":"RKNY","name":"Yangyang International Airport","city":"Gonghang-ro","country":"KR","lat":38.0605,"lon":128.6698,"max_runway_m":2500,"scheduled":true},{"icao":"RKPC","name":"Jeju International Airport","city":"Jeju City","country":"KR","lat":33.5121,"lon":126.4925,"max_runway_m":3180,"scheduled":true},{"icao":"RKPD","name":"Jeongseok Airport","city":"Jeju Island","country":"KR","lat":33.3996,"lon":126.712,"max_runway_m":2313,"scheduled":false},{"icao":"RKPE","name":"Jinhae Air Base","city":"Jinhae","country":"KR","lat":35.1402,"lon":128.6962,"max_runway_m":1148,"scheduled":false},{"icao":"RKPK","name":"Gimhae International Airport","city":"Busan","country":"KR","lat":35.1795,"lon":128.938,"max_runway_m":3200,"scheduled":true},{"icao":"RKPS","name":"Sacheon Airport / Sacheon Air Base","city":"Sacheon","country":"KR","lat":35.0886,"lon":128.0717,"max_runway_m":2743,"scheduled":true},{"icao":"RKPU","name":"Ulsan Airport","city":"Ulsan","country":"KR","lat":35.5935,"lon":129.352,"max_runway_m":2000,"scheduled":true},{"icao":"RKRA","name":"Ganap-ri (G-222) Airport","city":"Ganap-ri","country":"KR","lat":37.8301,"lon":126.9901,"max_runway_m":1193,"scheduled":false},{"icao":"RKRB","name":"Bucheon (G-103) Airfield","city":"Ilsin-ro","country":"KR","lat":37.4749,"lon":126.7473,"max_runway_m":490,"scheduled":false},{"icao":"RKRG","name":"Yangpyeong (G-301) Airport","city":"Yangpyeong","country":"KR","lat":37.5012,"lon":127.6302,"max_runway_m":488,"scheduled":false},{"icao":"RKRK","name":"G-213 Airport","city":"Ha-myeon","country":"KR","lat":37.8128,"lon":127.3571,"max_runway_m":462,"scheduled":false},{"icao":"RKRN","name":"Icheon (G-510) Airfield","city":"Jinsangmi-ro","country":"KR","lat":37.2007,"lon":127.4692,"max_runway_m":1620,"scheduled":false},{"icao":"RKRP","name":"Paju (G-110) Airport","city":"Paju","country":"KR","lat":37.7635,"lon":126.7925,"max_runway_m":494,"scheduled":false},{"icao":"RKRS","name":"Susaek (G 113) Airport","city":"Goyang","country":"KR","lat":37.6005,"lon":126.8695,"max_runway_m":1122,"scheduled":false},{"icao":"RKSG","name":"Camp Humphreys (A-511) Desiderio Army Airfield","city":"Pyeongtaek","country":"KR","lat":36.9624,"lon":127.0311,"max_runway_m":2505,"scheduled":false},{"icao":"RKSI","name":"Incheon International Airport","city":"Seoul","country":"KR","lat":37.4691,"lon":126.451,"max_runway_m":4000,"scheduled":true},{"icao":"RKSM","name":"Seoul Air Base (K-16)","city":"Seongnam","country":"KR","lat":37.4447,"lon":127.1127,"max_runway_m":2957,"scheduled":false},{"icao":"RKSO","name":"Osan Air Base","city":"Pyeongtaek","country":"KR","lat":37.0915,"lon":127.0294,"max_runway_m":2744,"scheduled":false},{"icao":"RKSS","name":"Gimpo International Airport","city":"Seoul","country":"KR","lat":37.5583,"lon":126.791,"max_runway_m":3600,"scheduled":true},{"icao":"RKSW","name":"Suwon Airport","city":"Suwon","country":"KR","lat":37.2394,"lon":127.007,"max_runway_m":2743,"scheduled":false},{"icao":"RKTE","name":"Seongmu Airport","city":"","country":"KR","lat":36.5682,"lon":127.5,"max_runway_m":1219,"scheduled":false},{"icao":"RKTH","name":"Pohang Airport (G-815/K-3)","city":"Pohang","country":"KR","lat":35.988,"lon":129.4204,"max_runway_m":2134,"scheduled":true},{"icao":"RKTI","name":"Jungwon Air Base/Chungju Airport","city":"Gimseang-ro","country":"KR","lat":37.0302,"lon":127.8864,"max_runway_m":2844,"scheduled":false},{"icao":"RKTN","name":"Daegu International Airport","city":"Daegu","country":"KR","lat":35.8944,"lon":128.657,"max_runway_m":2755,"scheduled":true},{"icao":"RKTP","name":"Seosan Air Base","city":"Seosan","country":"KR","lat":36.704,"lon":126.486,"max_runway_m":2743,"scheduled":false},{"icao":"RKTU","name":"Cheongju International Airport/Cheongju Air Base (K-59/G-513)","city":"Cheongju","country":"KR","lat":36.7156,"lon":127.5003,"max_runway_m":2743,"scheduled":true},{"icao":"RKTY","name":"Yecheon Airbase","city":"Yecheon-ri","country":"KR","lat":36.6304,"lon":128.3497,"max_runway_m":2743,"scheduled":false},{"icao":"RKUC","name":"Jochiwon (G-505) Airfield","city":"Jochiwon","country":"KR","lat":36.5719,"lon":127.2961,"max_runway_m":945,"scheduled":false},{"icao":"RKUL","name":"G 536 Airport","city":"Songdang-ri","country":"KR","lat":36.2671,"lon":127.1089,"max_runway_m":1200,"scheduled":false},{"icao":"ROAH","name":"Naha International Airport","city":"Naha","country":"JP","lat":26.1924,"lon":127.6398,"max_runway_m":2999,"scheduled":true},{"icao":"RODN","name":"Kadena Air Base","city":"Okinawa","country":"JP","lat":26.3517,"lon":127.7694,"max_runway_m":3688,"scheduled":false},{"icao":"ROIG","name":"New Ishigaki Airport","city":"Ishigaki","country":"JP","lat":24.3964,"lon":124.245,"max_runway_m":2000,"scheduled":true},{"icao":"ROKJ","name":"Kumejima Airport","city":"Kumejima","country":"JP","lat":26.3634,"lon":126.7138,"max_runway_m":2000,"scheduled":true},{"icao":"ROKR","name":"Kerama Airport","city":"Zamami","country":"JP","lat":26.1683,"lon":127.2934,"max_runway_m":800,"scheduled":false},{"icao":"ROMD","name":"Minamidaito Airport","city":"Minamidaito","country":"JP","lat":25.8465,"lon":131.263,"max_runway_m":1500,"scheduled":true},{"icao":"ROMY","name":"Miyako Airport","city":"Miyakojima","country":"JP","lat":24.7828,"lon":125.295,"max_runway_m":1999,"scheduled":true},{"icao":"RORE","name":"Iejima Airport","city":"Ie","country":"JP","lat":26.7225,"lon":127.7868,"max_runway_m":1500,"scheduled":false},{"icao":"RORK","name":"Kitadaito Airport","city":"Kitadaitōjima","country":"JP","lat":25.9447,"lon":131.327,"max_runway_m":1500,"scheduled":true},{"icao":"RORS","name":"Shimojishima Airport","city":"Miyakojima","country":"JP","lat":24.8267,"lon":125.145,"max_runway_m":3000,"scheduled":true},{"icao":"RORT","name":"Tarama Airport","city":"Tarama","country":"JP","lat":24.6538,"lon":124.6755,"max_runway_m":1500,"scheduled":true},{"icao":"RORY","name":"Yoron Airport","city":"Yoron","country":"JP","lat":27.0438,"lon":128.4016,"max_runway_m":1323,"scheduled":true},{"icao":"ROTM","name":"Futenma Marine Corps Air Station","city":"","country":"JP","lat":26.2743,"lon":127.756,"max_runway_m":2743,"scheduled":false},{"icao":"ROYN","name":"Yonaguni Airport","city":"Yonaguni","country":"JP","lat":24.4673,"lon":122.9798,"max_runway_m":1500,"scheduled":true},{"icao":"RPEN","name":"El Nido Airport","city":"El Nido","country":"PH","lat":11.2024,"lon":119.4161,"max_runway_m":1000,"scheduled":true},{"icao":"RPLA","name":"Pinamalayan Airport","city":"Pinamalayan","country":"PH","lat":12.9858,"lon":121.426,"max_runway_m":1200,"scheduled":false},{"icao":"RPLB","name":"Subic Bay International Airport / Naval Air Station Cubi Point","city":"Olongapo","country":"PH","lat":14.7948,"lon":120.2719,"max_runway_m":2744,"scheduled":true},{"icao":"RPLC","name":"Clark International Airport / Clark Air Base","city":"Mabalacat","country":"PH","lat":15.186,"lon":120.56,"max_runway_m":3200,"scheduled":true},{"icao":"RPLE","name":"Balesin Island Airport","city":"Balesin","country":"PH","lat":14.4186,"lon":122.0392,"max_runway_m":1527,"scheduled":false},{"icao":"RPLH","name":"Cagayan North International Airport","city":"Lal-lo","country":"PH","lat":18.1824,"lon":121.7462,"max_runway_m":2100,"scheduled":false},{"icao":"RPLI","name":"Laoag International Airport","city":"Laoag City","country":"PH","lat":18.1751,"lon":120.531,"max_runway_m":2780,"scheduled":true},{"icao":"RPLL","name":"Ninoy Aquino International Airport","city":"Manila (Pasay)","country":"PH","lat":14.5086,"lon":121.02,"max_runway_m":3737,"scheduled":true},{"icao":"RPLN","name":"Palanan Community Airport","city":"Palanan","country":"PH","lat":17.0657,"lon":122.4277,"max_runway_m":1000,"scheduled":true},{"icao":"RPLS","name":"Danilo Atienza Air Base","city":"Cavite","country":"PH","lat":14.4954,"lon":120.904,"max_runway_m":2368,"scheduled":false},{"icao":"RPLT","name":"Itbayat Jorge Abad Airport","city":"Itbayat","country":"PH","lat":20.7225,"lon":121.81,"max_runway_m":801,"scheduled":true},{"icao":"RPLU","name":"Lubang Airport","city":"Lubang","country":"PH","lat":13.8554,"lon":120.105,"max_runway_m":1260,"scheduled":false},{"icao":"RPLV","name":"Fort Magsaysay Airport","city":"Santa Rosa","country":"PH","lat":15.4347,"lon":121.091,"max_runway_m":1600,"scheduled":false},{"icao":"RPMA","name":"Allah Valley Airport","city":"Surallah","country":"PH","lat":6.3679,"lon":124.7524,"max_runway_m":1340,"scheduled":false},{"icao":"RPMB","name":"Rajah Buayan Air Base","city":"General Santos City","country":"PH","lat":6.1055,"lon":125.2349,"max_runway_m":1700,"scheduled":false},{"icao":"RPMC","name":"Cotabato (Awang) Airport","city":"Datu Odin Sinsuat","country":"PH","lat":7.1648,"lon":124.2099,"max_runway_m":1900,"scheduled":true},{"icao":"RPMD","name":"Francisco Bangoy International Airport","city":"Davao","country":"PH","lat":7.1255,"lon":125.646,"max_runway_m":3000,"scheduled":true},{"icao":"RPME","name":"Bancasi Airport","city":"Butuan","country":"PH","lat":8.9515,"lon":125.4788,"max_runway_m":2096,"scheduled":true},{"icao":"RPMF","name":"Bislig Airport","city":"Bislig","country":"PH","lat":8.1951,"lon":126.321,"max_runway_m":1200,"scheduled":false},{"icao":"RPMG","name":"Dipolog Airport","city":"Dipolog","country":"PH","lat":8.602,"lon":123.3419,"max_runway_m":1912,"scheduled":true},{"icao":"RPMH","name":"Camiguin Airport","city":"Mambajao","country":"PH","lat":9.2539,"lon":124.7091,"max_runway_m":1202,"scheduled":true},{"icao":"RPMI","name":"Maria Cristina (Iligan) Airport","city":"Balo-i","country":"PH","lat":8.1305,"lon":124.215,"max_runway_m":1400,"scheduled":false},{"icao":"RPMJ","name":"Jolo Airport","city":"Jolo","country":"PH","lat":6.0537,"lon":121.011,"max_runway_m":1263,"scheduled":true},{"icao":"RPML","name":"Lumbia Airfield","city":"Cagayan de Oro","country":"PH","lat":8.4152,"lon":124.6112,"max_runway_m":2454,"scheduled":false},{"icao":"RPMP","name":"Pagadian Airport","city":"Pagadian","country":"PH","lat":7.8256,"lon":123.4596,"max_runway_m":2004,"scheduled":true},{"icao":"RPMQ","name":"Mati National Airport","city":"Mati","country":"PH","lat":6.9491,"lon":126.2737,"max_runway_m":1625,"scheduled":false},{"icao":"RPMR","name":"General Santos International Airport","city":"General Santos","country":"PH","lat":6.0572,"lon":125.0962,"max_runway_m":3227,"scheduled":true},{"icao":"RPMS","name":"Surigao Airport","city":"Surigao City","country":"PH","lat":9.7558,"lon":125.4809,"max_runway_m":1708,"scheduled":true},{"icao":"RPMW","name":"Tandag Airport","city":"Tandag","country":"PH","lat":9.072,"lon":126.1713,"max_runway_m":1452,"scheduled":false},{"icao":"RPMY","name":"Laguindingan International Airport","city":"Laguindingan","country":"PH","lat":8.6122,"lon":124.4565,"max_runway_m":2100,"scheduled":true},{"icao":"RPMZ","name":"Zamboanga International Airport","city":"Zamboanga","country":"PH","lat":6.9224,"lon":122.06,"max_runway_m":2609,"scheduled":true},{"icao":"RPNS","name":"Siargao Airport","city":"Del Carmen","country":"PH","lat":9.8591,"lon":126.014,"max_runway_m":1270,"scheduled":true},{"icao":"RPSB","name":"Bantayan Airport","city":"Santa Fe","country":"PH","lat":11.1617,"lon":123.7849,"max_runway_m":1076,"scheduled":false},{"icao":"RPSM","name":"Maasin Airport","city":"Maasin","country":"PH","lat":10.1857,"lon":124.7832,"max_runway_m":1110,"scheduled":false},{"icao":"RPSP","name":"Bohol-Panglao International Airport","city":"Panglao","country":"PH","lat":9.573,"lon":123.7701,"max_runway_m":2500,"scheduled":true},{"icao":"RPSV","name":"San Vicente Airport","city":"San Vicente","country":"PH","lat":10.5243,"lon":119.2729,"max_runway_m":1803,"scheduled":true},{"icao":"RPUB","name":"Loakan Airport","city":"Baguio","country":"PH","lat":16.375,"lon":120.6199,"max_runway_m":1802,"scheduled":true},{"icao":"RPUD","name":"Daet Airport","city":"Daet","country":"PH","lat":14.1292,"lon":122.98,"max_runway_m":1150,"scheduled":false},{"icao":"RPUF","name":"Basa Air Base","city":"Floridablanca","country":"PH","lat":14.9872,"lon":120.4926,"max_runway_m":2570,"scheduled":false},{"icao":"RPUG","name":"Lingayen Airport","city":"Lingayen","country":"PH","lat":16.035,"lon":120.2422,"max_runway_m":1043,"scheduled":false},{"icao":"RPUH","name":"San Jose Airport","city":"San Jose","country":"PH","lat":12.3615,"lon":121.047,"max_runway_m":1836,"scheduled":true},{"icao":"RPUM","name":"Mamburao Airport","city":"Mamburao","country":"PH","lat":13.208,"lon":120.6055,"max_runway_m":1300,"scheduled":false},{"icao":"RPUN","name":"Naga Airport","city":"Naga","country":"PH","lat":13.5849,"lon":123.27,"max_runway_m":1402,"scheduled":true},{"icao":"RPUO","name":"Basco Airport","city":"Basco","country":"PH","lat":20.4513,"lon":121.98,"max_runway_m":1250,"scheduled":true},{"icao":"RPUQ","name":"Vigan Airport","city":"Vigan City","country":"PH","lat":17.5553,"lon":120.356,"max_runway_m":1186,"scheduled":false},{"icao":"RPUR","name":"Dr. Juan C. Angara Airport","city":"Baler","country":"PH","lat":15.7293,"lon":121.5,"max_runway_m":1200,"scheduled":false},{"icao":"RPUS","name":"San Fernando Airport","city":"San Fernando","country":"PH","lat":16.5956,"lon":120.303,"max_runway_m":1200,"scheduled":false},{"icao":"RPUT","name":"Tuguegarao Airport","city":"Tuguegarao City","country":"PH","lat":17.6434,"lon":121.7332,"max_runway_m":1967,"scheduled":true},{"icao":"RPUV","name":"Virac Airport","city":"Virac","country":"PH","lat":13.5764,"lon":124.206,"max_runway_m":1560,"scheduled":true},{"icao":"RPUW","name":"Marinduque Airport","city":"Gasan","country":"PH","lat":13.361,"lon":121.826,"max_runway_m":1458,"scheduled":false},{"icao":"RPUY","name":"Cauayan Airport","city":"Cauayan City","country":"PH","lat":16.9299,"lon":121.753,"max_runway_m":2100,"scheduled":true},{"icao":"RPVA","name":"Daniel Z. Romualdez Airport","city":"Tacloban City","country":"PH","lat":11.2278,"lon":125.0278,"max_runway_m":2138,"scheduled":true},{"icao":"RPVB","name":"Bacolod-Silay International Airport","city":"Bacolod City","country":"PH","lat":10.7762,"lon":123.0189,"max_runway_m":2000,"scheduled":true},{"icao":"RPVC","name":"Calbayog Airport","city":"Calbayog City","country":"PH","lat":12.0726,"lon":124.5451,"max_runway_m":1476,"scheduled":true},{"icao":"RPVD","name":"Sibulan Airport","city":"Dumaguete City","country":"PH","lat":9.3342,"lon":123.3019,"max_runway_m":1896,"scheduled":true},{"icao":"RPVE","name":"Godofredo P. Ramos Airport","city":"Caticlan","country":"PH","lat":11.9245,"lon":121.954,"max_runway_m":1800,"scheduled":true},{"icao":"RPVF","name":"Catarman National Airport","city":"Catarman","country":"PH","lat":12.5016,"lon":124.6353,"max_runway_m":1350,"scheduled":true},{"icao":"RPVG","name":"Guiuan Airport","city":"Guiuan","country":"PH","lat":11.0355,"lon":125.742,"max_runway_m":2414,"scheduled":false},{"icao":"RPVI","name":"Iloilo International Airport","city":"Cabatuan","country":"PH","lat":10.833,"lon":122.4934,"max_runway_m":2500,"scheduled":true},{"icao":"RPVJ","name":"Moises R. Espinosa Airport","city":"Masbate","country":"PH","lat":12.3697,"lon":123.6301,"max_runway_m":1280,"scheduled":true},{"icao":"RPVK","name":"Kalibo International Airport","city":"Kalibo","country":"PH","lat":11.6794,"lon":122.376,"max_runway_m":2187,"scheduled":true},{"icao":"RPVM","name":"Mactan Cebu International Airport","city":"Cebu City/Lapu-Lapu City","country":"PH","lat":10.3093,"lon":123.9797,"max_runway_m":3310,"scheduled":true},{"icao":"RPVO","name":"Ormoc Airport","city":"Ormoc City","country":"PH","lat":11.0577,"lon":124.5656,"max_runway_m":1865,"scheduled":false},{"icao":"RPVP","name":"Puerto Princesa International Airport / PAF Antonio Bautista Air Base","city":"Puerto Princesa","country":"PH","lat":9.742,"lon":118.7591,"max_runway_m":2600,"scheduled":true},{"icao":"RPVR","name":"Roxas Airport","city":"Roxas City","country":"PH","lat":11.5977,"lon":122.752,"max_runway_m":1890,"scheduled":true},{"icao":"RPVW","name":"Borongan Airport","city":"Borongan City","country":"PH","lat":11.6743,"lon":125.4793,"max_runway_m":1199,"scheduled":false},{"icao":"VAAH","name":"Sardar Vallabh Patel International Airport","city":"Ahmedabad","country":"IN","lat":23.0772,"lon":72.6347,"max_runway_m":3505,"scheduled":true},{"icao":"VAAU","name":"Aurangabad Airport","city":"Aurangabad","country":"IN","lat":19.8629,"lon":75.3963,"max_runway_m":2839,"scheduled":true},{"icao":"VABB","name":"Chhatrapati Shivaji Maharaj International Airport","city":"Mumbai","country":"IN","lat":19.0887,"lon":72.8679,"max_runway_m":3509,"scheduled":true},{"icao":"VABJ","name":"Bhuj Airport","city":"Bhuj","country":"IN","lat":23.2878,"lon":69.6702,"max_runway_m":2501,"scheduled":true},{"icao":"VABM","name":"Belagavi Airport","city":"Belgaum","country":"IN","lat":15.8593,"lon":74.6183,"max_runway_m":2300,"scheduled":true},{"icao":"VABO","name":"Vadodara International Airport","city":"Vadodara","country":"IN","lat":22.3362,"lon":73.2263,"max_runway_m":2469,"scheduled":true},{"icao":"VABP","name":"Raja Bhoj International Airport","city":"Bhopal","country":"IN","lat":23.2875,"lon":77.3374,"max_runway_m":2750,"scheduled":true},{"icao":"VABV","name":"Bhavnagar Airport","city":"Bhavnagar","country":"IN","lat":21.7522,"lon":72.1852,"max_runway_m":1920,"scheduled":true},{"icao":"VADN","name":"Daman Airport","city":"Daman","country":"IN","lat":20.4344,"lon":72.8432,"max_runway_m":1801,"scheduled":false},{"icao":"VADS","name":"Deesa Airport","city":"Deesa","country":"IN","lat":24.2679,"lon":72.2044,"max_runway_m":1006,"scheduled":false},{"icao":"VAGN","name":"Guna Airport","city":"","country":"IN","lat":24.6547,"lon":77.3473,"max_runway_m":914,"scheduled":false},{"icao":"VAHB","name":"Hubballi Airport","city":"Hubballi","country":"IN","lat":15.3611,"lon":75.0821,"max_runway_m":1670,"scheduled":true},{"icao":"VAHS","name":"Rajkot International Airport","city":"Rajkot","country":"IN","lat":22.3788,"lon":71.0394,"max_runway_m":3040,"scheduled":true},{"icao":"VAJB","name":"Jabalpur Airport","city":"Jabalpur","country":"IN","lat":23.1778,"lon":80.052,"max_runway_m":1988,"scheduled":true},{"icao":"VAJL","name":"Jalgaon Airport","city":"Jalgaon","country":"IN","lat":20.9627,"lon":75.6275,"max_runway_m":1816,"scheduled":true},{"icao":"VAJM","name":"Jamnagar Airport","city":"Jamnagar","country":"IN","lat":22.4655,"lon":70.0126,"max_runway_m":2512,"scheduled":true},{"icao":"VAKE","name":"Kandla Airport","city":"Kandla","country":"IN","lat":23.1127,"lon":70.1003,"max_runway_m":1523,"scheduled":true},{"icao":"VAKJ","name":"Khajuraho Airport","city":"Khajuraho","country":"IN","lat":24.8172,"lon":79.9186,"max_runway_m":2274,"scheduled":true},{"icao":"VAKP","name":"Kolhapur Airport","city":"Kolhapur","country":"IN","lat":16.6647,"lon":74.2894,"max_runway_m":1930,"scheduled":true},{"icao":"VAKS","name":"Keshod Airport","city":"Keshod","country":"IN","lat":21.3171,"lon":70.2704,"max_runway_m":1372,"scheduled":true},{"icao":"VALT","name":"Murod Kond Airport","city":"Latur","country":"IN","lat":18.4115,"lon":76.4647,"max_runway_m":2300,"scheduled":true},{"icao":"VAND","name":"Nanded Airport","city":"Nanded","country":"IN","lat":19.1833,"lon":77.3167,"max_runway_m":2300,"scheduled":true},{"icao":"VANP","name":"Dr. Babasaheb Ambedkar International Airport","city":"Nagpur","country":"IN","lat":21.0922,"lon":79.0472,"max_runway_m":3200,"scheduled":true},{"icao":"VAOZ","name":"Nashik International Airport","city":"Nashik","country":"IN","lat":20.1191,"lon":73.9129,"max_runway_m":3000,"scheduled":true},{"icao":"VAPO","name":"Pune International Airport","city":"Pune","country":"IN","lat":18.5821,"lon":73.9197,"max_runway_m":3048,"scheduled":true},{"icao":"VAPR","name":"Porbandar Airport","city":"Porbandar","country":"IN","lat":21.6495,"lon":69.6564,"max_runway_m":1372,"scheduled":true},{"icao":"VARG","name":"Ratnagiri Airport","city":"","country":"IN","lat":17.0136,"lon":73.3278,"max_runway_m":2100,"scheduled":false},{"icao":"VARK","name":"Rajkot Airport","city":"Rajkot","country":"IN","lat":22.3092,"lon":70.7795,"max_runway_m":1841,"scheduled":false},{"icao":"VARP","name":"Swami Vivekananda Airport","city":"Raipur","country":"IN","lat":21.1804,"lon":81.7388,"max_runway_m":1955,"scheduled":true},{"icao":"VASL","name":"Solapur Airport","city":"Solapur","country":"IN","lat":17.628,"lon":75.9348,"max_runway_m":2009,"scheduled":false},{"icao":"VASU","name":"Surat International Airport","city":"Surat","country":"IN","lat":21.1155,"lon":72.7433,"max_runway_m":2905,"scheduled":true},{"icao":"VAUD","name":"Maharana Pratap Airport","city":"Udaipur","country":"IN","lat":24.6177,"lon":73.8961,"max_runway_m":2281,"scheduled":true},{"icao":"VCBI","name":"Bandaranaike International Colombo Airport","city":"Colombo","country":"LK","lat":7.1808,"lon":79.8841,"max_runway_m":3350,"scheduled":true},{"icao":"VCCA","name":"Anuradhapura Airport","city":"Anuradhapura","country":"LK","lat":8.3015,"lon":80.4285,"max_runway_m":1486,"scheduled":false},{"icao":"VCCB","name":"Batticaloa International Airport","city":"Batticaloa","country":"LK","lat":7.7051,"lon":81.6772,"max_runway_m":1560,"scheduled":true},{"icao":"VCCC","name":"Colombo Ratmalana International Airport","city":"Colombo","country":"LK","lat":6.8216,"lon":79.8859,"max_runway_m":1833,"scheduled":true},{"icao":"VCCG","name":"Ampara Airport","city":"Ampara","country":"LK","lat":7.3367,"lon":81.6239,"max_runway_m":1097,"scheduled":false},{"icao":"VCCJ","name":"Jaffna International Airport","city":"Jaffna","country":"LK","lat":9.7923,"lon":80.0701,"max_runway_m":1400,"scheduled":true},{"icao":"VCCK","name":"Koggala Airport","city":"Galle","country":"LK","lat":5.9937,"lon":80.3203,"max_runway_m":958,"scheduled":true},{"icao":"VCCN","name":"Katukurunda Air Force Base","city":"Kalutara","country":"LK","lat":6.5521,"lon":79.9775,"max_runway_m":975,"scheduled":false},{"icao":"VCCS","name":"Sigiriya Air Force Base","city":"Sigiriya","country":"LK","lat":7.9567,"lon":80.7285,"max_runway_m":1806,"scheduled":false},{"icao":"VCCT","name":"China Bay Airport","city":"Trincomalee","country":"LK","lat":8.5392,"lon":81.1813,"max_runway_m":2393,"scheduled":true},{"icao":"VCCV","name":"Vavuniya Airport","city":"Vavuniya","country":"LK","lat":8.741,"lon":80.4978,"max_runway_m":1542,"scheduled":false},{"icao":"VCCW","name":"Weerawila Airport","city":"Weerawila","country":"LK","lat":6.2545,"lon":81.2352,"max_runway_m":1219,"scheduled":false},{"icao":"VCRI","name":"Mattala Rajapaksa International Airport","city":"Mattala","country":"LK","lat":6.2839,"lon":81.1242,"max_runway_m":3500,"scheduled":true},{"icao":"VDBG","name":"Battambang Airport","city":"Battambang","country":"KH","lat":13.0956,"lon":103.224,"max_runway_m":1600,"scheduled":true},{"icao":"VDPP","name":"Phnom Penh International Airport","city":"Phnom Penh (Pou Senchey)","country":"KH","lat":11.5472,"lon":104.8447,"max_runway_m":3000,"scheduled":false},{"icao":"VDSA","name":"Siem Reap-Angkor International Airport","city":"Siem Reap","country":"KH","lat":13.3697,"lon":104.2238,"max_runway_m":3605,"scheduled":true},{"icao":"VDSV","name":"Sihanouk International Airport","city":"Preah Sihanouk","country":"KH","lat":10.5706,"lon":103.6321,"max_runway_m":2500,"scheduled":true},{"icao":"VEAN","name":"Along Airport","city":"","country":"IN","lat":28.1753,"lon":94.802,"max_runway_m":1120,"scheduled":false},{"icao":"VEAT","name":"Agartala - Maharaja Bir Bikram Airport","city":"Agartala","country":"IN","lat":23.887,"lon":91.2404,"max_runway_m":2286,"scheduled":true},{"icao":"VEAZ","name":"Tuirial Airfield","city":"Aizawl","country":"IN","lat":23.7462,"lon":92.8028,"max_runway_m":1145,"scheduled":false},{"icao":"VEBA","name":"Behala Airport","city":"Kolkata","country":"IN","lat":22.5042,"lon":88.2934,"max_runway_m":863,"scheduled":false},{"icao":"VEBI","name":"Shillong Airport","city":"Shillong","country":"IN","lat":25.7036,"lon":91.9787,"max_runway_m":1829,"scheduled":true},{"icao":"VEBK","name":"Bokaro Airport","city":"","country":"IN","lat":23.6435,"lon":86.1489,"max_runway_m":1615,"scheduled":false},{"icao":"VEBN","name":"Lal Bahadur Shastri International Airport","city":"Varanasi","country":"IN","lat":25.4522,"lon":82.8625,"max_runway_m":2745,"scheduled":true},{"icao":"VEBS","name":"Biju Patnaik International Airport","city":"Bhubaneswar","country":"IN","lat":20.251,"lon":85.8147,"max_runway_m":2744,"scheduled":true},{"icao":"VEBU","name":"Bilaspur Airport","city":"Bilaspur","country":"IN","lat":21.9884,"lon":82.111,"max_runway_m":1535,"scheduled":true},{"icao":"VECA","name":"Chabua Air Force Station","city":"Chabua","country":"IN","lat":27.4622,"lon":95.1177,"max_runway_m":2744,"scheduled":false},{"icao":"VECC","name":"Netaji Subhash Chandra Bose International Airport","city":"Kolkata","country":"IN","lat":22.654,"lon":88.4476,"max_runway_m":3633,"scheduled":true},{"icao":"VECO","name":"Cooch Behar Airport","city":"Cooch Behar","country":"IN","lat":26.3305,"lon":89.4672,"max_runway_m":1067,"scheduled":false},{"icao":"VEDB","name":"Dhanbad Airport","city":"","country":"IN","lat":23.834,"lon":86.4253,"max_runway_m":1136,"scheduled":false},{"icao":"VEDG","name":"Kazi Nazrul Islam Airport","city":"Durgapur","country":"IN","lat":23.6225,"lon":87.243,"max_runway_m":2800,"scheduled":true},{"icao":"VEDH","name":"Darbhanga Airport","city":"Darbhanga","country":"IN","lat":26.1928,"lon":85.9169,"max_runway_m":2743,"scheduled":true},{"icao":"VEDX","name":"Kharagpur Airport / Kalaikunda Air Force Station","city":"Doarkhol","country":"IN","lat":22.3395,"lon":87.2145,"max_runway_m":2743,"scheduled":false},{"icao":"VEGT","name":"Lokpriya Gopinath Bordoloi International Airport","city":"Guwahati","country":"IN","lat":26.1067,"lon":91.5852,"max_runway_m":2743,"scheduled":true},{"icao":"VEGY","name":"Gaya Airport","city":"Gaya","country":"IN","lat":24.7443,"lon":84.9512,"max_runway_m":2286,"scheduled":true},{"icao":"VEHK","name":"Hirakud Airport","city":"Sambalpur","country":"IN","lat":21.5802,"lon":84.0057,"max_runway_m":1276,"scheduled":false},{"icao":"VEIM","name":"Bir Tikendrajit International Airport","city":"Imphal","country":"IN","lat":24.76,"lon":93.8967,"max_runway_m":2746,"scheduled":true},{"icao":"VEJH","name":"Jharsuguda Airport","city":"","country":"IN","lat":21.9135,"lon":84.0504,"max_runway_m":2391,"scheduled":true},{"icao":"VEJP","name":"Jeypore Airport","city":"Jeypore","country":"IN","lat":18.8795,"lon":82.5525,"max_runway_m":1200,"scheduled":false},{"icao":"VEJS","name":"Sonari Airport","city":"Jamshedpur","country":"IN","lat":22.8137,"lon":86.169,"max_runway_m":1222,"scheduled":false},{"icao":"VEJT","name":"Jorhat Airport","city":"Jorhat","country":"IN","lat":26.7305,"lon":94.1754,"max_runway_m":2743,"scheduled":true},{"icao":"VEKI","name":"Kushinagar International Airport","city":"Kushinagar","country":"IN","lat":26.7765,"lon":83.8892,"max_runway_m":3200,"scheduled":false},{"icao":"VEKM","name":"Kamalpur Airport","city":"Manik Bhandar","country":"IN","lat":24.1343,"lon":91.8108,"max_runway_m":1372,"scheduled":false},{"icao":"VEKR","name":"Kailashahar Airport","city":"Kailashahar","country":"IN","lat":24.3087,"lon":92.0077,"max_runway_m":1006,"scheduled":false},{"icao":"VEKU","name":"Silchar Airport","city":"Silchar","country":"IN","lat":24.9129,"lon":92.9787,"max_runway_m":1827,"scheduled":true},{"icao":"VELP","name":"Lengpui Airport","city":"Aizawl (Lengpui)","country":"IN","lat":23.8406,"lon":92.6197,"max_runway_m":2500,"scheduled":true},{"icao":"VEMN","name":"Dibrugarh Airport","city":"Dibrugarh","country":"IN","lat":27.4839,"lon":95.0169,"max_runway_m":1829,"scheduled":true},{"icao":"VEMR","name":"Dimapur Airport","city":"Dimapur","country":"IN","lat":25.8839,"lon":93.7711,"max_runway_m":2290,"scheduled":true},{"icao":"VEMZ","name":"Muzaffarpur Airport","city":"Muzaffarpur","country":"IN","lat":26.1191,"lon":85.3137,"max_runway_m":1216,"scheduled":false},{"icao":"VEPH","name":"Panagarh Air Force Station","city":"","country":"IN","lat":23.4743,"lon":87.4275,"max_runway_m":2743,"scheduled":false},{"icao":"VEPI","name":"Barrackpore Air Force Station","city":"Barrackpore","country":"IN","lat":22.781,"lon":88.3592,"max_runway_m":1864,"scheduled":false},{"icao":"VEPT","name":"Jay Prakash Narayan Airport","city":"Patna","country":"IN","lat":25.5913,"lon":85.088,"max_runway_m":1954,"scheduled":true},{"icao":"VEPU","name":"Purnea Airport","city":"","country":"IN","lat":25.7596,"lon":87.41,"max_runway_m":2652,"scheduled":false},{"icao":"VERC","name":"Birsa Munda Airport","city":"Ranchi","country":"IN","lat":23.3143,"lon":85.3217,"max_runway_m":2699,"scheduled":true},{"icao":"VERK","name":"Rourkela Airport","city":"Rourkela","country":"IN","lat":22.2566,"lon":84.8152,"max_runway_m":1825,"scheduled":false},{"icao":"VETZ","name":"Tezpur Airport","city":"","country":"IN","lat":26.7091,"lon":92.7847,"max_runway_m":2746,"scheduled":true},{"icao":"VEUK","name":"Utkela Airport","city":"","country":"IN","lat":20.0974,"lon":83.1838,"max_runway_m":914,"scheduled":false},{"icao":"VEVZ","name":"Visakhapatnam International Airport","city":"Visakhapatnam","country":"IN","lat":17.7235,"lon":83.2277,"max_runway_m":3050,"scheduled":true},{"icao":"VEZO","name":"Ziro Airport","city":"Ziro","country":"IN","lat":27.5883,"lon":93.8281,"max_runway_m":1222,"scheduled":false},{"icao":"VGBR","name":"Barisal Airport","city":"Barisal","country":"BD","lat":22.801,"lon":90.3012,"max_runway_m":1827,"scheduled":true},{"icao":"VGCB","name":"Cox's Bazar Airport","city":"Cox's Bazar","country":"BD","lat":21.4575,"lon":91.9633,"max_runway_m":2070,"scheduled":true},{"icao":"VGEG","name":"Shah Amanat International Airport","city":"Chattogram (Chittagong)","country":"BD","lat":22.2496,"lon":91.8133,"max_runway_m":2940,"scheduled":true},{"icao":"VGIS","name":"Ishurdi Airport","city":"Ishurdi","country":"BD","lat":24.1525,"lon":89.0494,"max_runway_m":1433,"scheduled":false},{"icao":"VGJR","name":"Jessore Airport","city":"Jashore (Jessore)","country":"BD","lat":23.1838,"lon":89.1608,"max_runway_m":2438,"scheduled":true},{"icao":"VGRJ","name":"Shah Makhdum Airport","city":"Rajshahi","country":"BD","lat":24.4372,"lon":88.6165,"max_runway_m":1829,"scheduled":true},{"icao":"VGSD","name":"Saidpur Airport","city":"Saidpur","country":"BD","lat":25.7592,"lon":88.9089,"max_runway_m":1829,"scheduled":true},{"icao":"VGSY","name":"Osmany International Airport","city":"Sylhet","country":"BD","lat":24.9631,"lon":91.8669,"max_runway_m":2889,"scheduled":true},{"icao":"VGTJ","name":"Tejgaon Airport","city":"Dhaka","country":"BD","lat":23.7785,"lon":90.3827,"max_runway_m":2839,"scheduled":false},{"icao":"VHHH","name":"Hong Kong International Airport","city":"Hong Kong","country":"HK","lat":22.3118,"lon":113.9149,"max_runway_m":3800,"scheduled":true},{"icao":"VHSK","name":"Shek Kong Air Base","city":"Islands","country":"HK","lat":22.4366,"lon":114.08,"max_runway_m":1884,"scheduled":false},{"icao":"VIAG","name":"Agra Airport / Agra Air Force Station","city":"Agra","country":"IN","lat":27.158,"lon":77.961,"max_runway_m":2743,"scheduled":true},{"icao":"VIAH","name":"Aligarh Airport","city":"Aligarh","country":"IN","lat":27.8614,"lon":78.1454,"max_runway_m":1488,"scheduled":true},{"icao":"VIAL","name":"Prayagraj Airport","city":"Allahabad","country":"IN","lat":25.4401,"lon":81.7339,"max_runway_m":2472,"scheduled":true},{"icao":"VIAM","name":"Ambala Air Force Station","city":"Ambala","country":"IN","lat":30.3681,"lon":76.8167,"max_runway_m":2811,"scheduled":false},{"icao":"VIAR","name":"Sri Guru Ram Das Ji International Airport","city":"Amritsar","country":"IN","lat":31.7096,"lon":74.7973,"max_runway_m":3658,"scheduled":true},{"icao":"VIAW","name":"Awantipura Air Force Station","city":"Awantipura","country":"IN","lat":33.8766,"lon":74.9757,"max_runway_m":3200,"scheduled":false},{"icao":"VIAX","name":"Adampur Airport","city":"Adampur","country":"IN","lat":31.4338,"lon":75.7588,"max_runway_m":2755,"scheduled":true},{"icao":"VIBK","name":"Nal Airport","city":"Bikaner","country":"IN","lat":28.0706,"lon":73.2072,"max_runway_m":2731,"scheduled":false},{"icao":"VIBL","name":"Bakshi Ka Talab Air Force Station","city":"Lucknow","country":"IN","lat":26.9883,"lon":80.8931,"max_runway_m":2740,"scheduled":false},{"icao":"VIBR","name":"Kullu Manali Airport","city":"Bhuntar","country":"IN","lat":31.8767,"lon":77.1544,"max_runway_m":1125,"scheduled":true},{"icao":"VIBT","name":"Bhatinda Air Force Station","city":"","country":"IN","lat":30.2701,"lon":74.7558,"max_runway_m":2804,"scheduled":false},{"icao":"VIBW","name":"Bhiwani Airport","city":"Bhiwani","country":"IN","lat":28.837,"lon":76.1791,"max_runway_m":1280,"scheduled":false},{"icao":"VIBY","name":"Bareilly Air Force Station","city":"Bareilly","country":"IN","lat":28.4221,"lon":79.4508,"max_runway_m":2743,"scheduled":true},{"icao":"VICG","name":"Shaheed Bhagat Singh International Airport","city":"Chandigarh","country":"IN","lat":30.6735,"lon":76.7885,"max_runway_m":3800,"scheduled":true},{"icao":"VICX","name":"Kanpur Airport","city":"Kanpur","country":"IN","lat":26.4043,"lon":80.4101,"max_runway_m":2743,"scheduled":true},{"icao":"VIDD","name":"Safdarjung Airport","city":"New Delhi","country":"IN","lat":28.5855,"lon":77.2036,"max_runway_m":1378,"scheduled":false},{"icao":"VIDF","name":"Pithoragarh Airport","city":"Pithoragarh","country":"IN","lat":29.5936,"lon":80.2392,"max_runway_m":1321,"scheduled":false},{"icao":"VIDN","name":"Dehradun Jolly Grant Airport","city":"Dehradun (Jauligrant)","country":"IN","lat":30.1892,"lon":78.1767,"max_runway_m":2134,"scheduled":true},{"icao":"VIDP","name":"Indira Gandhi International Airport","city":"New Delhi","country":"IN","lat":28.5556,"lon":77.0952,"max_runway_m":4430,"scheduled":true},{"icao":"VIGG","name":"Kangra Airport","city":"Kangra","country":"IN","lat":32.1649,"lon":76.263,"max_runway_m":1408,"scheduled":true},{"icao":"VIGR","name":"Gwalior Airport","city":"Gwalior","country":"IN","lat":26.2933,"lon":78.2278,"max_runway_m":2743,"scheduled":true},{"icao":"VIHR","name":"Maharaja Agrasen International Airport","city":"Hisar","country":"IN","lat":29.1861,"lon":75.7414,"max_runway_m":3120,"scheduled":true},{"icao":"VIJN","name":"Jhansi Airport","city":"","country":"IN","lat":25.4912,"lon":78.5584,"max_runway_m":1106,"scheduled":false},{"icao":"VIJP","name":"Jaipur International Airport","city":"Jaipur","country":"IN","lat":26.8242,"lon":75.8122,"max_runway_m":1592,"scheduled":true},{"icao":"VIJR","name":"Jaisalmer Airport","city":"","country":"IN","lat":26.8887,"lon":70.865,"max_runway_m":2743,"scheduled":true},{"icao":"VIJU","name":"Jammu Airport","city":"Jammu","country":"IN","lat":32.6888,"lon":74.8382,"max_runway_m":2042,"scheduled":true},{"icao":"VIKA","name":"Kanpur Civil Airport (Old)","city":"Kanpur","country":"IN","lat":26.4409,"lon":80.365,"max_runway_m":1123,"scheduled":false},{"icao":"VIKG","name":"Kishangarh Airport Ajmer","city":"Ajmer (Kishangarh)","country":"IN","lat":26.591,"lon":74.813,"max_runway_m":2152,"scheduled":true},{"icao":"VIKO","name":"Kota Airport","city":"Kota","country":"IN","lat":25.1602,"lon":75.8456,"max_runway_m":1243,"scheduled":false},{"icao":"VILD","name":"Ludhiana Airport","city":"","country":"IN","lat":30.8547,"lon":75.9526,"max_runway_m":1463,"scheduled":false},{"icao":"VILH","name":"Leh Kushok Bakula Rimpochee Airport","city":"Leh","country":"IN","lat":34.1359,"lon":77.5465,"max_runway_m":2755,"scheduled":true},{"icao":"VIPK","name":"Pathankot Airport","city":"Pathankot","country":"IN","lat":32.2336,"lon":75.6344,"max_runway_m":2734,"scheduled":true},{"icao":"VIPL","name":"Patiala Airport","city":"","country":"IN","lat":30.3148,"lon":76.3645,"max_runway_m":1167,"scheduled":false},{"icao":"VIPT","name":"Pantnagar Airport","city":"Pantnagar","country":"IN","lat":29.0334,"lon":79.4737,"max_runway_m":1372,"scheduled":true},{"icao":"VIRB","name":"Fursatganj Airport","city":"Tarauna","country":"IN","lat":26.2485,"lon":81.3805,"max_runway_m":1722,"scheduled":false},{"icao":"VISA","name":"Sirsa Air Force Station","city":"","country":"IN","lat":29.5606,"lon":75.0061,"max_runway_m":2739,"scheduled":false},{"icao":"VISM","name":"Shimla Airport","city":"Jubbarhatti","country":"IN","lat":31.0818,"lon":77.068,"max_runway_m":1230,"scheduled":false},{"icao":"VISP","name":"Sarsawa Air Force Station","city":"Sherpur Naqeebpur","country":"IN","lat":29.9943,"lon":77.4246,"max_runway_m":2743,"scheduled":false},{"icao":"VISR","name":"Sheikh ul Alam International Airport","city":"Srinagar","country":"IN","lat":33.9871,"lon":74.7742,"max_runway_m":3685,"scheduled":true},{"icao":"VIST","name":"Satna Airport","city":"","country":"IN","lat":24.5626,"lon":80.8529,"max_runway_m":1059,"scheduled":false},{"icao":"VISV","name":"Shravasti Airport","city":"Shravasti","country":"IN","lat":27.4997,"lon":82.0329,"max_runway_m":1530,"scheduled":true},{"icao":"VIUT","name":"Uttarlai Airport","city":"","country":"IN","lat":25.813,"lon":71.4823,"max_runway_m":2744,"scheduled":false},{"icao":"VLHS","name":"Ban Huoeisay Airport","city":"Huay Xai","country":"LA","lat":20.2573,"lon":100.437,"max_runway_m":1500,"scheduled":false},{"icao":"VLLB","name":"Luang Phabang International Airport","city":"Luang Phabang","country":"LA","lat":19.9043,"lon":102.1672,"max_runway_m":2500,"scheduled":true},{"icao":"VLLN","name":"Luang Namtha Airport","city":"Luang Namtha","country":"LA","lat":20.967,"lon":101.4,"max_runway_m":1600,"scheduled":true},{"icao":"VLPS","name":"Pakse International Airport","city":"Pakse","country":"LA","lat":15.134,"lon":105.7799,"max_runway_m":2400,"scheduled":true},{"icao":"VLSK","name":"Savannakhet Airport","city":"","country":"LA","lat":16.5566,"lon":104.76,"max_runway_m":1633,"scheduled":false},{"icao":"VLSN","name":"Sam Neua Airport","city":"","country":"LA","lat":20.4184,"lon":104.067,"max_runway_m":1132,"scheduled":false},{"icao":"VLVT","name":"Wattay International Airport","city":"Vientiane","country":"LA","lat":17.9851,"lon":102.5667,"max_runway_m":3000,"scheduled":true},{"icao":"VLXK","name":"Xieng Khouang Airport","city":"Xieng Khouang","country":"LA","lat":19.45,"lon":103.158,"max_runway_m":2608,"scheduled":true},{"icao":"VMMC","name":"Macau International Airport","city":"Nossa Senhora do Carmo","country":"MO","lat":22.1496,"lon":113.592,"max_runway_m":3214,"scheduled":true},{"icao":"VNBP","name":"Bharatpur Airport","city":"Bharatpur","country":"NP","lat":27.6781,"lon":84.4294,"max_runway_m":1158,"scheduled":true},{"icao":"VNBW","name":"Gautam Buddha International Airport","city":"Siddharthanagar (Bhairahawa)","country":"NP","lat":27.5046,"lon":83.4104,"max_runway_m":3000,"scheduled":true},{"icao":"VNCG","name":"Bhadrapur Airport","city":"Bhadrapur","country":"NP","lat":26.5708,"lon":88.0796,"max_runway_m":1209,"scheduled":true},{"icao":"VNJL","name":"Jumla Airport","city":"Jumla","country":"NP","lat":29.2742,"lon":82.1933,"max_runway_m":660,"scheduled":true},{"icao":"VNJP","name":"Janakpur Airport","city":"Janakpur","country":"NP","lat":26.7088,"lon":85.9224,"max_runway_m":1006,"scheduled":true},{"icao":"VNJS","name":"Jomsom Airport","city":"Jomsom","country":"NP","lat":28.7804,"lon":83.723,"max_runway_m":739,"scheduled":true},{"icao":"VNKT","name":"Tribhuvan International Airport","city":"Kathmandu","country":"NP","lat":27.6966,"lon":85.3591,"max_runway_m":3350,"scheduled":true},{"icao":"VNLK","name":"Tenzing-Hillary Airport","city":"Lukla","country":"NP","lat":27.6868,"lon":86.7295,"max_runway_m":527,"scheduled":true},{"icao":"VNMA","name":"Manang Airport","city":"Ngawal","country":"NP","lat":28.6414,"lon":84.0892,"max_runway_m":650,"scheduled":false},{"icao":"VNNG","name":"Nepalgunj Airport","city":"Nepalgunj","country":"NP","lat":28.1036,"lon":81.667,"max_runway_m":1504,"scheduled":true},{"icao":"VNPK","name":"Pokhara Domestic Airport","city":"Pokhara","country":"NP","lat":28.2006,"lon":83.9812,"max_runway_m":1439,"scheduled":true},{"icao":"VNPL","name":"Phaplu Airport","city":"Phaplu","country":"NP","lat":27.5178,"lon":86.585,"max_runway_m":671,"scheduled":false},{"icao":"VNRK","name":"Rukum Chaurjahari Airport","city":"Rukumkot","country":"NP","lat":28.627,"lon":82.194,"max_runway_m":600,"scheduled":false},{"icao":"VNSI","name":"Simara Airport","city":"Simara","country":"NP","lat":27.1598,"lon":84.98,"max_runway_m":1192,"scheduled":true},{"icao":"VNVT","name":"Biratnagar Airport","city":"Biratnagar","country":"NP","lat":26.4815,"lon":87.264,"max_runway_m":1505,"scheduled":true},{"icao":"VOAT","name":"Agatti Airport","city":"Agatti","country":"IN","lat":10.8237,"lon":72.176,"max_runway_m":1291,"scheduled":true},{"icao":"VOBG","name":"HAL Airport","city":"Bangalore","country":"IN","lat":12.95,"lon":77.6682,"max_runway_m":3307,"scheduled":false},{"icao":"VOBI","name":"Bellary Airport","city":"Bellary","country":"IN","lat":15.1628,"lon":76.8828,"max_runway_m":1106,"scheduled":false},{"icao":"VOBL","name":"Kempegowda International Airport Bengaluru","city":"Bengaluru","country":"IN","lat":13.1979,"lon":77.7063,"max_runway_m":4000,"scheduled":true},{"icao":"VOBR","name":"Bidar Airport / Bidar Air Force Station","city":"Bidar","country":"IN","lat":17.9081,"lon":77.4871,"max_runway_m":2120,"scheduled":false},{"icao":"VOBZ","name":"Vijayawada International Airport","city":"Vijayawada","country":"IN","lat":16.53,"lon":80.8049,"max_runway_m":3360,"scheduled":true},{"icao":"VOCB","name":"Coimbatore International Airport","city":"Coimbatore","country":"IN","lat":11.03,"lon":77.0434,"max_runway_m":2585,"scheduled":true},{"icao":"VOCC","name":"INS Garuda / Willingdon Island Naval Air Station","city":"Kochi","country":"IN","lat":9.9461,"lon":76.2719,"max_runway_m":1817,"scheduled":false},{"icao":"VOCI","name":"Cochin International Airport","city":"Kochi","country":"IN","lat":10.151,"lon":76.4008,"max_runway_m":3400,"scheduled":true},{"icao":"VOCL","name":"Calicut International Airport","city":"Calicut","country":"IN","lat":11.136,"lon":75.9552,"max_runway_m":2860,"scheduled":true},{"icao":"VOCP","name":"Kadapa Airport","city":"Kadapa","country":"IN","lat":14.5132,"lon":78.7692,"max_runway_m":2000,"scheduled":true},{"icao":"VOCX","name":"Car Nicobar Air Force Base","city":"IAF Camp","country":"IN","lat":9.1531,"lon":92.8193,"max_runway_m":2717,"scheduled":false},{"icao":"VODG","name":"Dundigul Air Force Academy","city":"Hyderabad","country":"IN","lat":17.6272,"lon":78.4034,"max_runway_m":2515,"scheduled":false},{"icao":"VOGA","name":"Manohar International Airport","city":"Mopa","country":"IN","lat":15.7443,"lon":73.8606,"max_runway_m":3500,"scheduled":true},{"icao":"VOGB","name":"Kalaburagi Airport","city":"Kalaburagi","country":"IN","lat":17.3082,"lon":76.9652,"max_runway_m":3175,"scheduled":true},{"icao":"VOGO","name":"Goa Dabolim International Airport","city":"Vasco da Gama","country":"IN","lat":15.3801,"lon":73.8333,"max_runway_m":3458,"scheduled":true},{"icao":"VOHK","name":"Hakimpet Airport","city":"Secunderabad","country":"IN","lat":17.5535,"lon":78.5249,"max_runway_m":2095,"scheduled":false},{"icao":"VOHS","name":"Rajiv Gandhi International Airport","city":"Hyderabad","country":"IN","lat":17.2313,"lon":78.4299,"max_runway_m":4260,"scheduled":true},{"icao":"VOHY","name":"Begumpet Airport","city":"Hyderabad","country":"IN","lat":17.4531,"lon":78.4676,"max_runway_m":3231,"scheduled":false},